[
  {
    "name": "Bargoed, U5 The Plateau",
    "lat": 51.68821777,
    "long": -3.228920986
  },
  {
    "name": "Rotherham, 2 Effingham St",
    "lat": 53.43163122,
    "long": -1.355389076
  },
  {
    "name": "Winsford, Winsford Cross SC",
    "lat": 53.191733732653,
    "long": -2.527510757087
  },
  {
    "name": "Nottingham, U32 Victoria CTR",
    "lat": 52.956300318004,
    "long": -1.147137900259
  },
  {
    "name": "Birmingham, 85 New St",
    "lat": 52.47933868,
    "long": -1.901779855
  },
  {
    "name": "Daventry, U20 Bowen Sq",
    "lat": 52.25734156,
    "long": -1.161484289
  },
  {
    "name": "Birmingham, U38 Great Western Arc",
    "lat": 52.48194607,
    "long": -1.897458586
  },
  {
    "name": "Leicester, 20 Belgrave Gate",
    "lat": 52.63696896,
    "long": -1.131434677
  },
  {
    "name": "Bletchley, 108 Queensway",
    "lat": 51.99442495,
    "long": -0.730978591
  },
  {
    "name": "Rushden, 40 High St",
    "lat": 52.29045502,
    "long": -0.59765458
  },
  {
    "name": "Outlet: Leicester, 237C Uppingham Rd",
    "lat": 52.64205294,
    "long": -1.090438534
  },
  {
    "name": "Llanharan, U3 Bridgend Rd",
    "lat": 51.53323664,
    "long": -3.451712793
  },
  {
    "name": "Tenby, 48 High St",
    "lat": 51.6717927,
    "long": -4.69902495
  },
  {
    "name": "Selly Oak, U9A Selly Oak SP",
    "lat": 52.4442367,
    "long": -1.938821396
  },
  {
    "name": "Pennywell, 4 Pennywell SC",
    "lat": 54.89688646,
    "long": -1.439568304
  },
  {
    "name": "Edinburgh, Davidson Mains, 21 Main St",
    "lat": 55.9655599,
    "long": -3.273863704
  },
  {
    "name": "Edinburgh, U21 Westside Plaza SC",
    "lat": 55.915379778987,
    "long": -3.28487032499
  },
  {
    "name": "Longbenton, U5 The Boulevard",
    "lat": 55.01164359,
    "long": -1.591230064
  },
  {
    "name": "Balham, 141 Balham High Rd",
    "lat": 51.44442699,
    "long": -0.151739798
  },
  {
    "name": "North Chingford, 25 Station Rd",
    "lat": 51.63111278,
    "long": 0.002907948
  },
  {
    "name": "Crouch End, 29 The Broadway",
    "lat": 51.57932369,
    "long": -0.124013257
  },
  {
    "name": "Notting Hill, 238 Portobello Rd",
    "lat": 51.51748864,
    "long": -0.206075
  },
  {
    "name": "Mill Hill, 44 The Broadway",
    "lat": 51.61471267,
    "long": -0.24678583
  },
  {
    "name": "Parkstone, 332 Ashley Rd",
    "lat": 50.72878414,
    "long": -1.936199087
  },
  {
    "name": "Wellingborough, U13A Swansgate CTR",
    "lat": 52.301552519719,
    "long": -0.692204410795
  },
  {
    "name": "Atherstone, 91 Long St",
    "lat": 52.57734146,
    "long": -1.54725053
  },
  {
    "name": "Leamington Spa, 19 The Parade",
    "lat": 52.2925701,
    "long": -1.535638379
  },
  {
    "name": "Newcastle, 42 Neville St",
    "lat": 54.96934767,
    "long": -1.617641912
  },
  {
    "name": "Stretford, U11 Trafford Ctr, Regent Cres",
    "lat": 53.466177904102,
    "long": -2.349004806301
  },
  {
    "name": "Pencoed,15 Coychurch Rd",
    "lat": 51.522423868373,
    "long": -3.500868511183
  },
  {
    "name": "Malvern, 326 Worcester Rd",
    "lat": 52.13354812,
    "long": -2.303116786
  },
  {
    "name": "Carmarthen, U3 Parc Pensarn",
    "lat": 51.85069102,
    "long": -4.307637395
  },
  {
    "name": "Penkridge, U11 Boscomoor SC",
    "lat": 52.71686898,
    "long": -2.118909475
  },
  {
    "name": "Edinburgh, 357 Leith Wlk",
    "lat": 55.96411727,
    "long": -3.177108806
  },
  {
    "name": "Carlisle, U3 Globe Ln, The Lanes SC",
    "lat": 54.895205035669,
    "long": -2.934450791264
  },
  {
    "name": "Durham, 1B Dryburn View",
    "lat": 54.79289427,
    "long": -1.590779468
  },
  {
    "name": "Harlow, 6 Bush Fair SC",
    "lat": 51.757661099787,
    "long": 0.112653588101
  },
  {
    "name": "Sheerness, 52 High St",
    "lat": 51.44055044,
    "long": 0.76134058
  },
  {
    "name": "Erith, U23 Riverside SC",
    "lat": 51.48030156,
    "long": 0.179996331
  },
  {
    "name": "Paulsgrove, 179 Allaway Ave",
    "lat": 50.84965028,
    "long": -1.094042909
  },
  {
    "name": "Hounslow, 181 High St",
    "lat": 51.46870275377,
    "long": -0.361444630433
  },
  {
    "name": "Archway, 33 Junction Rd",
    "lat": 51.56459483,
    "long": -0.134746552
  },
  {
    "name": "Barnet, 134 High St",
    "lat": 51.6550799,
    "long": -0.201549167
  },
  {
    "name": "Portsmouth, Quartremaine Rd",
    "lat": 50.8215076,
    "long": -1.052608773
  },
  {
    "name": "Inverurie, 5 Market Pl",
    "lat": 57.28410419,
    "long": -2.375165885
  },
  {
    "name": "Chepstow, 20 High St",
    "lat": 51.64179034,
    "long": -2.674985067
  },
  {
    "name": "Cardiff, U5 St Davids SC",
    "lat": 51.48060343461,
    "long": -3.177101371652
  },
  {
    "name": "Portishead, 66 High St",
    "lat": 51.48316032,
    "long": -2.769220578
  },
  {
    "name": "Ashby De La Zouch, 25 Market Pl",
    "lat": 52.74696978,
    "long": -1.472399448
  },
  {
    "name": "Preston, U4 Tulkth Mill RP, Blackpool Rd",
    "lat": 53.77190543,
    "long": -2.723644224
  },
  {
    "name": "Burnley, Trafalgar St",
    "lat": 53.78776709,
    "long": -2.250543483
  },
  {
    "name": "Cheltenham, 219 High St",
    "lat": 51.9016624,
    "long": -2.075410348
  },
  {
    "name": "Ystradgynlais, 34 Heol Eglwys",
    "lat": 51.77744173,
    "long": -3.758482059
  },
  {
    "name": "Telford, UA4 Stafford Park 4",
    "lat": 52.67634457,
    "long": -2.423779697
  },
  {
    "name": "Birmingham, U54 Cuckoo TP",
    "lat": 52.50581224,
    "long": -1.863485419
  },
  {
    "name": "Thornaby, U2 The Pavillion SC",
    "lat": 54.539084011066,
    "long": -1.290767457039
  },
  {
    "name": "Sunderland, 18 Fawcett St",
    "lat": 54.90619365,
    "long": -1.38153433
  },
  {
    "name": "Haddington, 29 Market St",
    "lat": 55.95586924,
    "long": -2.777547946
  },
  {
    "name": "Bearsden, 124 Drymen Rd",
    "lat": 55.92019545,
    "long": -4.334105911
  },
  {
    "name": "Sheffield, 31 Bellhouse Rd",
    "lat": 53.41874666,
    "long": -1.447293714
  },
  {
    "name": "Salford, 104 Mather Way",
    "lat": 53.48940309,
    "long": -2.287046735
  },
  {
    "name": "Liverpool, 2A Catharine St",
    "lat": 53.4008118,
    "long": -2.967839288
  },
  {
    "name": "Netherfield, U1 Victoria BP",
    "lat": 52.96213558,
    "long": -1.067472205
  },
  {
    "name": "Chester, 9 Frodsham St",
    "lat": 53.19165276,
    "long": -2.888504735
  },
  {
    "name": "Kiddminster, U1 Swan SC",
    "lat": 52.38824036,
    "long": -2.249021302
  },
  {
    "name": "Nailsea, 16 Colliers Wlk",
    "lat": 51.432847137557,
    "long": -2.759125717264
  },
  {
    "name": "Newport, U4 Audley Avenue RP",
    "lat": 52.76314553,
    "long": -2.361216441
  },
  {
    "name": "Caerphilly, 47 Cardiff Rd",
    "lat": 51.57379033,
    "long": -3.220435161
  },
  {
    "name": "Glasgow, The Forge SC",
    "lat": 55.85344117251,
    "long": -4.199821883908
  },
  {
    "name": "Sheffield, 21 Market Pl",
    "lat": 53.38349312,
    "long": -1.466255255
  },
  {
    "name": "Bradford, U5 The Parkside CTR",
    "lat": 53.81649703,
    "long": -1.773527716
  },
  {
    "name": "Liverpool, 17 Castle St",
    "lat": 53.40656039,
    "long": -2.990809539
  },
  {
    "name": "Lincoln 23 Bailgate",
    "lat": 53.23584198,
    "long": -0.53856777
  },
  {
    "name": "Carnforth, 11 Market St",
    "lat": 54.1289369,
    "long": -2.769097719
  },
  {
    "name": "New Milton, 9 Old Grn Pde,Â Christch Rd",
    "lat": 50.74726925,
    "long": -1.664534782
  },
  {
    "name": "London, U1 London Victoria Coach Stn",
    "lat": 51.4923588,
    "long": -0.148310277
  },
  {
    "name": "Lowestoft, U5C Gateway RP",
    "lat": 52.44647889,
    "long": 1.724130526
  },
  {
    "name": "South Oxhey, 6 Station Approach",
    "lat": 51.62842933,
    "long": -0.386654998
  },
  {
    "name": "Bath, U56 Southgate, Southgate St",
    "lat": 51.37872223,
    "long": -2.359536219
  },
  {
    "name": "Outlet: Howdon, 18 Tynemouth Rd",
    "lat": 54.99661312,
    "long": -1.502227394
  },
  {
    "name": "Hartlepool, U2 Powlett Rd",
    "lat": 54.69872364,
    "long": -1.220618293
  },
  {
    "name": "Wythenshawe, U7 The Birtles",
    "lat": 53.379930916669,
    "long": -2.261890489392
  },
  {
    "name": "Lancaster, 9 Cheapside",
    "lat": 54.049095008858,
    "long": -2.799522419038
  },
  {
    "name": "Halifax, Pellon Lane SS",
    "lat": 53.72695636,
    "long": -1.875280475
  },
  {
    "name": "Rhyl, 73 High St",
    "lat": 53.32080581,
    "long": -3.489880814
  },
  {
    "name": "Loughborough, 5 Market St",
    "lat": 52.77115358,
    "long": -1.20732978
  },
  {
    "name": "Solihull, 33 High St",
    "lat": 52.41367553,
    "long": -1.778659332
  },
  {
    "name": "Birmingham, U6 Cherry St",
    "lat": 52.48052424,
    "long": -1.897366957
  },
  {
    "name": "Cardiff, 39 Wellfield Rd",
    "lat": 51.49548332,
    "long": -3.165532668
  },
  {
    "name": "Kettering, U14 The Mall, Newlands SC",
    "lat": 52.401455133887,
    "long": -0.727396348494
  },
  {
    "name": "Oldbury, U14 Oldbury Green RP",
    "lat": 52.50431275,
    "long": -2.021981002
  },
  {
    "name": "Newcastle, Airport",
    "lat": 55.037022904635,
    "long": -1.710115633838
  },
  {
    "name": "Newcastle, Sandy Lane Drive Thru",
    "lat": 55.04000208,
    "long": -1.595996429
  },
  {
    "name": "Edinburgh, U7F Fort Kinnaird RP",
    "lat": 55.934337965924,
    "long": -3.103363384932
  },
  {
    "name": "Bognor Regis, 2B London Rd",
    "lat": 50.78393392,
    "long": -0.673133438
  },
  {
    "name": "Debden, 45 The Broadway",
    "lat": 51.64779809,
    "long": 0.08327071
  },
  {
    "name": "Southampton, UJ2 Antelope Park",
    "lat": 50.90565043,
    "long": -1.339320819
  },
  {
    "name": "Elgin, U2271K Elgin IE",
    "lat": 51.57487801,
    "long": -1.770475239
  },
  {
    "name": "Marlborough, 104 High St",
    "lat": 51.41938277,
    "long": -1.733102591
  },
  {
    "name": "Stockton, Preston Farm IE",
    "lat": 54.54616939,
    "long": -1.320561069
  },
  {
    "name": "Dumbarton, U4 St James RP",
    "lat": 55.94356337,
    "long": -4.560871607
  },
  {
    "name": "Kendal, 8 Stricklandgate",
    "lat": 54.32807822029,
    "long": -2.748031704687
  },
  {
    "name": "Telford, Telford SC, 136 Thetford Chase",
    "lat": 52.676461046342,
    "long": -2.447136013986
  },
  {
    "name": "Bletchley, U1C Beacon RP",
    "lat": 52.00317756,
    "long": -0.725097301
  },
  {
    "name": "Merthyr Tydfil, U6 Beacons Place SC",
    "lat": 51.7455039,
    "long": -3.3779801
  },
  {
    "name": "Melksham, U3 Ashville Ctr, Commerce Way",
    "lat": 51.35509171,
    "long": -2.140384904
  },
  {
    "name": "Newton Abbot, U3 Market Wlk SC",
    "lat": 50.530506763586,
    "long": -3.611050342868
  },
  {
    "name": "Edinburgh, 106 Easter Rd",
    "lat": 55.95916526,
    "long": -3.171527758
  },
  {
    "name": "Middlesbrough, 12 Gilkes St",
    "lat": 54.57540328822,
    "long": -1.237957842889
  },
  {
    "name": "Workington, Washington Square SC",
    "lat": 54.643510834479,
    "long": -3.545887142603
  },
  {
    "name": "Musselburgh, 134 High St",
    "lat": 55.94238516,
    "long": -3.050844141
  },
  {
    "name": "New Malden, 148 High St",
    "lat": 51.39958189,
    "long": -0.255370339
  },
  {
    "name": "Petersfield, 23 Chapel St",
    "lat": 51.00503667,
    "long": -0.938227939
  },
  {
    "name": "Chelmsford, U5C Interchange",
    "lat": 51.736080807677,
    "long": 0.466485105764
  },
  {
    "name": "Harlow, Edinburgh Way",
    "lat": 51.78593584,
    "long": 0.118265278
  },
  {
    "name": "Wandsworth, 75 Southside SC",
    "lat": 51.45508961,
    "long": -0.194265381
  },
  {
    "name": "Downham Market, U1 Wales Crt",
    "lat": 52.602118347879,
    "long": 0.376930774204
  },
  {
    "name": "Chelmsford, Chelmer SC",
    "lat": 51.733902871294,
    "long": 0.471696426116
  },
  {
    "name": "Godalming, 8 High St",
    "lat": 51.18589796,
    "long": -0.610567608
  },
  {
    "name": "Kirkcaldy, U2 Fife Central RP",
    "lat": 56.13445546,
    "long": -3.199774215
  },
  {
    "name": "Swinton, 30 The Pde",
    "lat": 53.512508050062,
    "long": -2.338392578238
  },
  {
    "name": "Leeds, 26 Cross Gates SC",
    "lat": 53.80668749,
    "long": -1.450374715
  },
  {
    "name": "Retford, 18A Carolgate",
    "lat": 53.321872564354,
    "long": -0.942509228462
  },
  {
    "name": "Rotherham, U33 Parkgate SP",
    "lat": 53.44453205,
    "long": -1.346633592
  },
  {
    "name": "Salford, U4 Seaford Rd",
    "lat": 53.49624909,
    "long": -2.272827664
  },
  {
    "name": "York Uni, U4 Heslington East Campus",
    "lat": 53.95049939,
    "long": -1.029679866
  },
  {
    "name": "Kingstanding, 625 Kingstanding Rd",
    "lat": 52.55231278,
    "long": -1.884183883
  },
  {
    "name": "Abingdon, 7 Bury St",
    "lat": 51.670406755574,
    "long": -1.282218654662
  },
  {
    "name": "Newport, Coedkernew, 3 Lakeside Dr",
    "lat": 51.55905113,
    "long": -3.03642517
  },
  {
    "name": "Redditch, Washford TP",
    "lat": 52.28546134,
    "long": -1.905117752
  },
  {
    "name": "Southampton, 101 Above Bar St",
    "lat": 50.90620164,
    "long": -1.404667387
  },
  {
    "name": "Chadderton, U3A Shopping PCT",
    "lat": 53.54576559,
    "long": -2.140953302
  },
  {
    "name": "Dewsbury, The Princess Of Wales PCT",
    "lat": 53.69057017,
    "long": -1.628620562
  },
  {
    "name": "Castleford, 64 Carlton St",
    "lat": 53.726070239074,
    "long": -1.353030684962
  },
  {
    "name": "Cradley Heath, 190C Halesowen Rd",
    "lat": 52.47692986,
    "long": -2.068135288
  },
  {
    "name": "Chelmsley Wood SS, Chester Rd",
    "lat": 52.49019231,
    "long": -1.738237735
  },
  {
    "name": "Tow Law, 47A High St",
    "lat": 54.74605916,
    "long": -1.81499975
  },
  {
    "name": "Edinburgh, 2 Shandwick Pl",
    "lat": 55.95015313,
    "long": -3.208560727
  },
  {
    "name": "Stevenston, U3 Ashenyards RP",
    "lat": 55.64894555,
    "long": -4.731632454
  },
  {
    "name": "Alton, 56 High St",
    "lat": 51.14842922,
    "long": -0.976243999
  },
  {
    "name": "Newcastle, U2 Wellbar Central",
    "lat": 54.9739203,
    "long": -1.619270943
  },
  {
    "name": "Shaw, 28 Market St",
    "lat": 53.57707801,
    "long": -2.093910913
  },
  {
    "name": "Leeds, U5 The Light SC, Headrow",
    "lat": 53.79980135,
    "long": -1.54638228
  },
  {
    "name": "Birkenhead, Pavements SC",
    "lat": 53.389386673734,
    "long": -3.026379877157
  },
  {
    "name": "Denaby Main, Hill Top Rd",
    "lat": 53.4913028,
    "long": -1.255473885
  },
  {
    "name": "Altrincham, 54 George St",
    "lat": 53.38744266,
    "long": -2.350218354
  },
  {
    "name": "Manchester, U5 Thorncliffe House",
    "lat": 53.46141704,
    "long": -2.229255495
  },
  {
    "name": "Ledbury, 2 High St",
    "lat": 52.03706345,
    "long": -2.422474102
  },
  {
    "name": "Derby, U13 Eagle Park, Alfreton Rd",
    "lat": 52.93844778,
    "long": -1.469440863
  },
  {
    "name": "Gloucester, 19 Southgate St",
    "lat": 51.86469086,
    "long": -2.246490684
  },
  {
    "name": "Harborne, 83 High St",
    "lat": 52.46006092,
    "long": -1.946113341
  },
  {
    "name": "Saltcoats, 29 Dockhead St",
    "lat": 55.633043964618,
    "long": -4.787075259514
  },
  {
    "name": "Washington, U1 Arndale House SC",
    "lat": 54.91301562,
    "long": -1.522785593
  },
  {
    "name": "Wickersley, 236 Bawtry Rd",
    "lat": 53.42105651,
    "long": -1.283696003
  },
  {
    "name": "Reading, 38 Market Place",
    "lat": 51.45554874,
    "long": -0.969826531
  },
  {
    "name": "Basildon, 20 South Wlk",
    "lat": 51.569040393934,
    "long": 0.458859725058
  },
  {
    "name": "East Ham, 158 High St Nth",
    "lat": 51.53768237,
    "long": 0.051803046
  },
  {
    "name": "Scunthorpe, 33 High St",
    "lat": 53.59206259,
    "long": -0.645200313
  },
  {
    "name": "Harrow, 51 St Anns Rd",
    "lat": 51.58137357,
    "long": -0.337429978
  },
  {
    "name": "Chepstow, U1 Newport Rd",
    "lat": 51.63609927,
    "long": -2.68359948
  },
  {
    "name": "Brierley Hill, Intu Merryhill Kiosk",
    "lat": 52.482057848744,
    "long": -2.110495206735
  },
  {
    "name": "Cardiff, 2A Park Pl",
    "lat": 51.48276912,
    "long": -3.174619056
  },
  {
    "name": "Maryhill, U8 Maryhill SC",
    "lat": 55.887252843697,
    "long": -4.286521866263
  },
  {
    "name": "Sleaford, 42 Southgate",
    "lat": 52.99754778,
    "long": -0.409716416
  },
  {
    "name": "Nottingham, U7 Midland Way RP",
    "lat": 52.95597088,
    "long": -1.18300881
  },
  {
    "name": "Manchester, Avro Way",
    "lat": 53.36159571,
    "long": -2.28826667
  },
  {
    "name": "Rugeley, 23 Lower Brook St",
    "lat": 52.75971339,
    "long": -1.935644906
  },
  {
    "name": "Kettering, 57 High St",
    "lat": 52.39948355,
    "long": -0.728479003
  },
  {
    "name": "Birmingham, U3B Bullring SC, Lower Mall",
    "lat": 52.47681352,
    "long": -1.895363736
  },
  {
    "name": "Kettering, U1 Henson Cl, Telford Way IE",
    "lat": 52.41193685,
    "long": -0.739104051
  },
  {
    "name": "Shrewsbury, U1 Shrewsbury BP",
    "lat": 52.69033197,
    "long": -2.722067857
  },
  {
    "name": "Torquay, U20 Union Square SC",
    "lat": 50.467342038443,
    "long": -3.529231427888
  },
  {
    "name": "Edinburgh, 74 Nicholson St",
    "lat": 55.94538907,
    "long": -3.184234684
  },
  {
    "name": "Dundee, UL28 Overgate SC",
    "lat": 56.460028903974,
    "long": -2.972917777544
  },
  {
    "name": "Barkingside, 75 High St",
    "lat": 51.59062271,
    "long": 0.082210773
  },
  {
    "name": "Kingsbury, 461 Kingsbury Rd",
    "lat": 51.5857086,
    "long": -0.276235599
  },
  {
    "name": "Shepherd's Bush, 68 Uxbridge Rd",
    "lat": 51.50459231,
    "long": -0.219726679
  },
  {
    "name": "Barnard Castle, 11 Horsemarket",
    "lat": 54.54388283,
    "long": -1.923716837
  },
  {
    "name": "Broxburn, 30 East Main St",
    "lat": 55.93412873,
    "long": -3.470412399
  },
  {
    "name": "Hartlepool, U6 Belle Vue Way",
    "lat": 54.66937311,
    "long": -1.211584995
  },
  {
    "name": "Blackheath, 181 High St",
    "lat": 52.47562537,
    "long": -2.03966241
  },
  {
    "name": "Leam Lane, U2 Fewster Sq",
    "lat": 54.94070571,
    "long": -1.545042379
  },
  {
    "name": "Hartlepool, The Fens SC",
    "lat": 54.65541946,
    "long": -1.233351719
  },
  {
    "name": "Edinburgh, 141 Boswall Parkway",
    "lat": 55.97518631,
    "long": -3.238070843
  },
  {
    "name": "Slough, 1 Mackenzie St",
    "lat": 51.50932949,
    "long": -0.593914389
  },
  {
    "name": "Southend, 67 High St",
    "lat": 51.53629719,
    "long": 0.713525576
  },
  {
    "name": "Plumstead, 6 Lakedale Rd",
    "lat": 51.4872389,
    "long": 0.090979595
  },
  {
    "name": "Ashford, 94 High St",
    "lat": 51.1496961,
    "long": 0.871165815
  },
  {
    "name": "Peterborough, Orton, U10 Ortongate SC",
    "lat": 52.5431066,
    "long": -0.301677534
  },
  {
    "name": "Darlington, 68 Skinnergate",
    "lat": 54.52537946,
    "long": -1.557327907
  },
  {
    "name": "Holborn, 76 Southampton Row",
    "lat": 51.51973924,
    "long": -0.121745685
  },
  {
    "name": "Winchester, 16 High St",
    "lat": 51.06202565,
    "long": -1.312683991
  },
  {
    "name": "Diss, 22 Mere St",
    "lat": 52.37489132,
    "long": 1.109085426
  },
  {
    "name": "Watford, 114C High St",
    "lat": 51.65439401,
    "long": -0.394736288
  },
  {
    "name": "Manchester, 16 Gateway House",
    "lat": 53.47848082772,
    "long": -2.231669372602
  },
  {
    "name": "Cleckheaton, 16 Northgate",
    "lat": 53.72447176,
    "long": -1.713660601
  },
  {
    "name": "Manchester, 10 Oxford Rd",
    "lat": 53.47295942,
    "long": -2.239865498
  },
  {
    "name": "Sheffield, 6 Fargate",
    "lat": 53.38233757,
    "long": -1.468793341
  },
  {
    "name": "Stretford, U6 Arndale CTR",
    "lat": 53.445676389342,
    "long": -2.309420144081
  },
  {
    "name": "Leeds, West Point",
    "lat": 53.7963842,
    "long": -1.553131937
  },
  {
    "name": "Barnsley, 5 Eldon Arc",
    "lat": 53.55371116,
    "long": -1.478486883
  },
  {
    "name": "Blackpool, Oxford Sq",
    "lat": 53.80380394,
    "long": -3.027141148
  },
  {
    "name": "York, U2 Clifton Moor RP",
    "lat": 53.99254276,
    "long": -1.104178108
  },
  {
    "name": "Nuneaton, U33 Abbeygate CTR",
    "lat": 52.52387646,
    "long": -1.467671741
  },
  {
    "name": "Swansea, 8 Whitewalls",
    "lat": 51.61966031,
    "long": -3.944345972
  },
  {
    "name": "Coventry, U10A Arena SP",
    "lat": 52.443770233094,
    "long": -1.49103621658
  },
  {
    "name": "Risca, 43A Tredegar St",
    "lat": 51.60821246,
    "long": -3.100966818
  },
  {
    "name": "Burton Upon Trent, 2 Cooper Sq SC",
    "lat": 52.802040751982,
    "long": -1.631870502064
  },
  {
    "name": "Spalding, 8 Hall Pl",
    "lat": 52.78736217,
    "long": -0.152217694
  },
  {
    "name": "Leeds, Chapel Allerton, 110 Harrogate Rd",
    "lat": 53.82923741,
    "long": -1.537822606
  },
  {
    "name": "Bedford, U19 Harpur SC",
    "lat": 52.136062170691,
    "long": -0.469291391176
  },
  {
    "name": "Derby, U2A Ctrl Hall, East St",
    "lat": 52.92146846,
    "long": -1.474407198
  },
  {
    "name": "Kingston Pk, U8 Kingston Pk SC",
    "lat": 55.01306193,
    "long": -1.669045528
  },
  {
    "name": "Bangor, 70 Main St",
    "lat": 54.66137115,
    "long": -5.668195738
  },
  {
    "name": "Amersham, 42 Sycamore Rd",
    "lat": 51.67764846,
    "long": -0.606208488
  },
  {
    "name": "Glasgow, 1865 Paisley Rd West",
    "lat": 55.84533039,
    "long": -4.34484726
  },
  {
    "name": "Belfast, 52 Botanic Ave",
    "lat": 54.587838,
    "long": -5.932712375
  },
  {
    "name": "Hunslet, U6 Hunslet District CTR",
    "lat": 53.77863582,
    "long": -1.528701594
  },
  {
    "name": "Glossop, 25 High St West",
    "lat": 53.44323762,
    "long": -1.950679069
  },
  {
    "name": "Wednesbury, 14 Union St",
    "lat": 52.552489805292,
    "long": -2.020530521252
  },
  {
    "name": "Leicester, 285 Abbey Ln",
    "lat": 52.65829186,
    "long": -1.133264086
  },
  {
    "name": "Birmingham, U18B Fox SC, Washwood Hth Rd",
    "lat": 52.49416922,
    "long": -1.819225665
  },
  {
    "name": "Swansea, U6F Swansea EP",
    "lat": 51.65849966,
    "long": -3.90861481
  },
  {
    "name": "Derby, USU164 Intu Derby",
    "lat": 52.919578933162,
    "long": -1.474397502635
  },
  {
    "name": "Motherwell, 32 Brandon Pde",
    "lat": 55.79065926,
    "long": -3.991994786
  },
  {
    "name": "Norton, 51 High St",
    "lat": 54.58758016,
    "long": -1.310669178
  },
  {
    "name": "Sheffield, 61 The Moor",
    "lat": 53.37646076,
    "long": -1.473015173
  },
  {
    "name": "Brighouse, 15 Commercial St",
    "lat": 53.70227101,
    "long": -1.78012955
  },
  {
    "name": "Launceston, Pennygillam IE, Pennygllm Wy",
    "lat": 50.62761711,
    "long": -4.371006211
  },
  {
    "name": "London, 243 Whitechapel Rd",
    "lat": 51.51915071,
    "long": -0.060929509
  },
  {
    "name": "Boston, Pilgrim Wy",
    "lat": 52.95511793,
    "long": -0.030595274
  },
  {
    "name": "Bedminster, 78 East St",
    "lat": 51.44194998,
    "long": -2.597549012
  },
  {
    "name": "Newcastle, U3 Cobalt BP",
    "lat": 55.02000804,
    "long": -1.506686224
  },
  {
    "name": "Salford, 258 Eccles Old Rd",
    "lat": 53.4893293,
    "long": -2.326404324
  },
  {
    "name": "Hyde, 14 Clarendon Sq",
    "lat": 53.450932763717,
    "long": -2.07815603158
  },
  {
    "name": "Bedford, 13 All Hallows",
    "lat": 52.13766853,
    "long": -0.470144925
  },
  {
    "name": "Birmingham, 51 Warstone Ln",
    "lat": 52.48693437,
    "long": -1.912974669
  },
  {
    "name": "Northampton, 51 Abington St",
    "lat": 52.23881042,
    "long": -0.892370978
  },
  {
    "name": "Warminster, U18 Three Horseshoes Wlk",
    "lat": 51.20526674,
    "long": -2.180120686
  },
  {
    "name": "Northampton, 9 Alexandra Tce",
    "lat": 52.26425019,
    "long": -0.900018197
  },
  {
    "name": "Milton Keynes, Westcroft District Ctr",
    "lat": 52.00450328,
    "long": -0.794767664
  },
  {
    "name": "Newtown, Pool Rd",
    "lat": 52.51575469,
    "long": -3.304958751
  },
  {
    "name": "Hylton Castle, 42 Chiswick Sq",
    "lat": 54.92262324,
    "long": -1.451445136
  },
  {
    "name": "Middlesbrough, U34 Hill St SC",
    "lat": 54.57711802,
    "long": -1.238854982
  },
  {
    "name": "Newton Aycliffe, U2, Beveridge Wy",
    "lat": 54.620468039001,
    "long": -1.571659229269
  },
  {
    "name": "Hemel Hempstead, 150 The Marlowes",
    "lat": 51.7523278,
    "long": -0.472631574
  },
  {
    "name": "Broadstairs, U27 Westwood Cross",
    "lat": 51.36004088,
    "long": 1.393588669
  },
  {
    "name": "Leigh Park, U59 Greywell SC",
    "lat": 50.867350928192,
    "long": -0.98520943058
  },
  {
    "name": "Streatham, 158 Streatham High Rd",
    "lat": 51.43293235,
    "long": -0.128969616
  },
  {
    "name": "Berwick, 26 Marygate",
    "lat": 55.76974042,
    "long": -2.003311621
  },
  {
    "name": "Morpeth, 23 Bridge St",
    "lat": 55.16742808,
    "long": -1.688820469
  },
  {
    "name": "Ayr, 239 High St",
    "lat": 55.46041518,
    "long": -4.628845445
  },
  {
    "name": "Frome, U22 Westway CTR",
    "lat": 51.23190212,
    "long": -2.321216294
  },
  {
    "name": "Henbury, 175 Crow Ln",
    "lat": 51.50949837,
    "long": -2.620181018
  },
  {
    "name": "Llanrumney, 72 Countisbury Ave",
    "lat": 51.52136817,
    "long": -3.11937396
  },
  {
    "name": "Milngavie, 6 Douglas St",
    "lat": 55.941392737939,
    "long": -4.318281333815
  },
  {
    "name": "Ferryhill, 17 Market St",
    "lat": 54.68907154,
    "long": -1.556099396
  },
  {
    "name": "Alexandria, 139 Main St",
    "lat": 55.98683916,
    "long": -4.581436862
  },
  {
    "name": "Edinburgh, 224 Gorgie Rd",
    "lat": 55.93756753,
    "long": -3.234197538
  },
  {
    "name": "Aberdeen, 55 Union St",
    "lat": 57.14705434,
    "long": -2.096629948
  },
  {
    "name": "Stockton, High Newham Rd",
    "lat": 54.58331078,
    "long": -1.350638077
  },
  {
    "name": "Bellshill, 13A Hamilton Rd",
    "lat": 55.81816199,
    "long": -4.025610814
  },
  {
    "name": "Hornchurch, 148 High St",
    "lat": 51.56218209,
    "long": 0.219978852
  },
  {
    "name": "Reading, 16 Broad St Mall",
    "lat": 51.45489036,
    "long": -0.975629845
  },
  {
    "name": "West Norwood, 324 Norwood Rd",
    "lat": 51.43529115,
    "long": -0.104181974
  },
  {
    "name": "Portsmouth, 120 Commercial Rd",
    "lat": 50.79962133,
    "long": -1.09072565
  },
  {
    "name": "Dartford, 15 Priory SC",
    "lat": 51.444010057154,
    "long": 0.216091680043
  },
  {
    "name": "Southend, 100 High St",
    "lat": 51.53777386,
    "long": 0.713634465
  },
  {
    "name": "Basingstoke, Festival Pl SC",
    "lat": 51.26612873,
    "long": -1.087607585
  },
  {
    "name": "Portsmouth, U4 Charter House",
    "lat": 50.795201468568,
    "long": -1.094451118616
  },
  {
    "name": "Worthing, 111 Montague St",
    "lat": 50.80999357,
    "long": -0.375028008
  },
  {
    "name": "Rainham, U3 Rainham SC",
    "lat": 51.364113250406,
    "long": 0.607893767547
  },
  {
    "name": "Glasgow, Easterhouse, Shandwick Sq SC",
    "lat": 55.86853984,
    "long": -4.121190084
  },
  {
    "name": "Warrington, U27 Birchwood SC",
    "lat": 53.41421502,
    "long": -2.527271655
  },
  {
    "name": "Morecambe, U8 Arndale CTR",
    "lat": 54.071870583986,
    "long": -2.865672793737
  },
  {
    "name": "Mansfield, 19 Market Pl",
    "lat": 53.14458938,
    "long": -1.196965134
  },
  {
    "name": "Goole, 5 Wesley Sq",
    "lat": 53.70503064,
    "long": -0.871741666
  },
  {
    "name": "Doncaster, U16  Food Mall, Frnchgate CTR",
    "lat": 53.524052463761,
    "long": -1.138599919341
  },
  {
    "name": "Lichfield, 9 Bakers Ln",
    "lat": 52.683056889632,
    "long": -1.825733531737
  },
  {
    "name": "Maesteg, 8 Talbot St",
    "lat": 51.60893507,
    "long": -3.659728676
  },
  {
    "name": "Tonypandy, 37 Dunraven St",
    "lat": 51.62171052,
    "long": -3.453895729
  },
  {
    "name": "Coventry, 2A Earlsdon St",
    "lat": 52.39987588,
    "long": -1.530920931
  },
  {
    "name": "Pontyclun, 48 Talbot Rd",
    "lat": 51.53714385,
    "long": -3.384175979
  },
  {
    "name": "Pontyclun, 19 Cowbridge Rd",
    "lat": 51.52271569,
    "long": -3.391380548
  },
  {
    "name": "Tamworth, UM Ventura RP, Ventura Park Rd",
    "lat": 52.62693583,
    "long": -1.700515282
  },
  {
    "name": "Birtley, 37 Durham Rd",
    "lat": 54.89509159,
    "long": -1.57780467
  },
  {
    "name": "Leeds, U1 Boar Lane",
    "lat": 53.79576449,
    "long": -1.544284697
  },
  {
    "name": "Pudsey, 14 Church Ln",
    "lat": 53.79590903,
    "long": -1.663932872
  },
  {
    "name": "Sale, UB, 121 Washway Rd",
    "lat": 53.42074697,
    "long": -2.330316292
  },
  {
    "name": "Driffield, 53a Middle St",
    "lat": 54.00434099,
    "long": -0.438187017
  },
  {
    "name": "Bedwas, U5A Bedwas IE",
    "lat": 51.59085817,
    "long": -3.204162447
  },
  {
    "name": "Wolverhampton, U25A Wulfrun SC",
    "lat": 52.583204414285,
    "long": -2.126999271411
  },
  {
    "name": "Aberdare, 3A Riverside RP",
    "lat": 51.70207123,
    "long": -3.420174924
  },
  {
    "name": "Erdington, 96 High St",
    "lat": 52.52476477,
    "long": -1.837641424
  },
  {
    "name": "Belfast, U5 Twin Spires Complex",
    "lat": 54.59963656,
    "long": -5.947917814
  },
  {
    "name": "Holloway, 132 Holloway Rd",
    "lat": 51.55063526,
    "long": -0.109250192
  },
  {
    "name": "Brentwood, 68 High St",
    "lat": 51.61985623,
    "long": 0.300823483
  },
  {
    "name": "Whitley Bay, 248 Whitley Rd",
    "lat": 55.04228802,
    "long": -1.445693881
  },
  {
    "name": "Blantyre, U8 Clydeview SC",
    "lat": 55.7924302,
    "long": -4.088619596
  },
  {
    "name": "Mansfield, 11 Westgate",
    "lat": 53.14501445,
    "long": -1.197171549
  },
  {
    "name": "Cleethorpes, 41 Saint Peters Ave",
    "lat": 53.55940662,
    "long": -0.031480382
  },
  {
    "name": "Prestwich, U10 Radius Retail",
    "lat": 53.53340105,
    "long": -2.283793337
  },
  {
    "name": "Smethwick, 25 Cape Hill",
    "lat": 52.4869889,
    "long": -1.960429157
  },
  {
    "name": "Abbey Wood, 7 Wilton Rd",
    "lat": 51.49013729,
    "long": 0.12116388
  },
  {
    "name": "Johnstone, 40 High St",
    "lat": 55.83666925,
    "long": -4.511235645
  },
  {
    "name": "Paisley, 16 Moss St",
    "lat": 55.84616802,
    "long": -4.424604478
  },
  {
    "name": "Glasgow, 401 Victoria Rd",
    "lat": 55.83649239,
    "long": -4.2645274
  },
  {
    "name": "Sunderland, Park Lane Interchange",
    "lat": 54.90305628,
    "long": -1.385178285
  },
  {
    "name": "Thirsk, 36 Market Pl",
    "lat": 54.2323618,
    "long": -1.342276326
  },
  {
    "name": "Leeds, U1 Thorpe Pk",
    "lat": 53.79954438,
    "long": -1.42675021
  },
  {
    "name": "Manchester, Airp T1 Arrivals",
    "lat": 53.361879734982,
    "long": -2.270840588478
  },
  {
    "name": "Manchester, 39 King St West",
    "lat": 53.48166133,
    "long": -2.249157907
  },
  {
    "name": "Blackpool, 72 Church St",
    "lat": 53.81773213,
    "long": -3.052582822
  },
  {
    "name": "Leeds, 355 Harehills Lane",
    "lat": 53.80920107,
    "long": -1.50908085
  },
  {
    "name": "Cumbernauld, 16 St Maurices Gate",
    "lat": 55.94466195,
    "long": -4.031797627
  },
  {
    "name": "Sandhurst, 39 Yorktown Rd",
    "lat": 51.34614173,
    "long": -0.801761819
  },
  {
    "name": "Bracknell, Western TC, Western Rd",
    "lat": 51.41693919,
    "long": -0.769930531
  },
  {
    "name": "Barry, U1 Briscombe RP, Cardiff Rd",
    "lat": 51.41119008,
    "long": -3.248086581
  },
  {
    "name": "Alfreton, U1B Nottingham Rd",
    "lat": 53.08712864,
    "long": -1.375568453
  },
  {
    "name": "Rubery, 175 New Rd",
    "lat": 52.39388352,
    "long": -2.017927233
  },
  {
    "name": "Swansea, Morriston, U1 Heron Wy",
    "lat": 51.66435536,
    "long": -3.913066354
  },
  {
    "name": "Cheadle, 66 High St",
    "lat": 53.39459953,
    "long": -2.216136339
  },
  {
    "name": "Rumney. 767 Newport Rd",
    "lat": 51.50902983,
    "long": -3.132237279
  },
  {
    "name": "Coventry, 243 Walsgrave Rd",
    "lat": 52.41119094,
    "long": -1.481975274
  },
  {
    "name": "Hereford, 53 Broad St",
    "lat": 52.05615128,
    "long": -2.717777464
  },
  {
    "name": "Banbury, 30 Castle Quay SC",
    "lat": 52.06329488,
    "long": -1.335014895
  },
  {
    "name": "Greggs @ Tesco Newport RP",
    "lat": 51.575745201574,
    "long": -2.946719606171
  },
  {
    "name": "Plymouth, 30 Royal Pde",
    "lat": 50.37050867,
    "long": -4.140826129
  },
  {
    "name": "Barnstaple, U1 Pottington BP, Pilland Wy",
    "lat": 51.085600243073,
    "long": -4.077028260243
  },
  {
    "name": "South Shields, 285 Prince Edward Rd",
    "lat": 54.9720125,
    "long": -1.408979931
  },
  {
    "name": "Airdrie, 68 Graham St",
    "lat": 55.86606103,
    "long": -3.97849165
  },
  {
    "name": "Prestwick, 85 Main St",
    "lat": 55.49964902,
    "long": -4.610639838
  },
  {
    "name": "Clarkston, U5 Busby Rd",
    "lat": 55.79002232,
    "long": -4.277035679
  },
  {
    "name": "Partick, 392 Dumbarton Road",
    "lat": 55.87090785,
    "long": -4.309270315
  },
  {
    "name": "Greenock, 1 Auchmead Rd",
    "lat": 55.93797715,
    "long": -4.814299035
  },
  {
    "name": "Galashiels, 25 Market St",
    "lat": 55.61524555,
    "long": -2.805949018
  },
  {
    "name": "Sutton, 72 High St",
    "lat": 51.36193243,
    "long": -0.192149417
  },
  {
    "name": "Tonbridge, 86 High St",
    "lat": 51.1948691,
    "long": 0.274155361
  },
  {
    "name": "Hillingdon, 370 Long Lane",
    "lat": 51.55081276,
    "long": -0.448662578
  },
  {
    "name": "Dunstable, U18 Quadrant SC",
    "lat": 51.887133293792,
    "long": -0.520569968559
  },
  {
    "name": "Bury St Edmunds, 30 Cornhill",
    "lat": 52.24656135,
    "long": 0.712243488
  },
  {
    "name": "Dunfermline, U3 Kingsgate SC",
    "lat": 56.072391304342,
    "long": -3.459578833998
  },
  {
    "name": "Newcastle, 95 Grey St",
    "lat": 54.97327612,
    "long": -1.612961661
  },
  {
    "name": "Newcastle, 24 Northumberland St",
    "lat": 54.97495778,
    "long": -1.611984243
  },
  {
    "name": "Sheffield, U2 Beighton BP, Chstrfield Rd",
    "lat": 53.35515049,
    "long": -1.329183439
  },
  {
    "name": "Fulwood, U5 Eastway RP",
    "lat": 53.79718138,
    "long": -2.693709188
  },
  {
    "name": "West Bromwich, 146 Walsall Rd",
    "lat": 52.54470087,
    "long": -1.983975989
  },
  {
    "name": "Brownhills, 54 High St",
    "lat": 52.64678333,
    "long": -1.932728301
  },
  {
    "name": "Coventry, 6 Ironmonger Row",
    "lat": 52.40900869,
    "long": -1.510534671
  },
  {
    "name": "Leicester, U26 Highcross SC",
    "lat": 52.635901192691,
    "long": -1.135323088219
  },
  {
    "name": "Taunton, U26 Orchard SC",
    "lat": 51.01399056941,
    "long": -3.10195043391
  },
  {
    "name": "Kidderminster, U2 Foley Dr",
    "lat": 52.36313747,
    "long": -2.266259772
  },
  {
    "name": "Caerphilly, UC Castle View SC",
    "lat": 51.5708311,
    "long": -3.242155963
  },
  {
    "name": "Whitburn, 19 West Main St",
    "lat": 55.86649367,
    "long": -3.685452686
  },
  {
    "name": "Camelon, 332 Main St",
    "lat": 56.00344376,
    "long": -3.813785522
  },
  {
    "name": "Barrhead, 186 Main Street",
    "lat": 55.80120496,
    "long": -4.387956723
  },
  {
    "name": "Whitehaven, U5 Bridges RP",
    "lat": 54.54464608,
    "long": -3.585029489
  },
  {
    "name": "Romford, 57 South St",
    "lat": 51.57705189,
    "long": 0.181899578
  },
  {
    "name": "Lower Edmonton, 21 South Mall",
    "lat": 51.623692001994,
    "long": -0.058824646777
  },
  {
    "name": "Peterborough, 27 Bridge St",
    "lat": 52.57164288,
    "long": -0.242058935
  },
  {
    "name": "Norwich, U2 Harford Place, Hall Rd",
    "lat": 52.6070515,
    "long": 1.288254413
  },
  {
    "name": "Stalybridge, 48 Melbourne St",
    "lat": 53.482044626522,
    "long": -2.057448646478
  },
  {
    "name": "Leeds, Seacroft Green SC",
    "lat": 53.82257651,
    "long": -1.460628398
  },
  {
    "name": "Liverpool, St Johns SC, 60 Houghton St",
    "lat": 53.4061875,
    "long": -2.981551777
  },
  {
    "name": "Macclesfield, Grosvenor CTR",
    "lat": 53.2603185,
    "long": -2.12619514
  },
  {
    "name": "Dewsbury, U8 Ravensthorpe SC",
    "lat": 53.68006782,
    "long": -1.662640561
  },
  {
    "name": "Crewe, Beswick Dr",
    "lat": 53.09384823,
    "long": -2.414548461
  },
  {
    "name": "Mountain Ash, 23B Oxford St",
    "lat": 51.68270148,
    "long": -3.378852187
  },
  {
    "name": "Leicester, U58G Haymarket SC",
    "lat": 52.63698393,
    "long": -1.131408925
  },
  {
    "name": "Ebbw Vale, U21 Market St",
    "lat": 51.77947784,
    "long": -3.20738558
  },
  {
    "name": "Brighton, 96 Queens Rd",
    "lat": 50.82703491,
    "long": -0.141633355
  },
  {
    "name": "Hardgate, 5 Rockbank Pl",
    "lat": 55.92425023,
    "long": -4.4021244
  },
  {
    "name": "Ilkeston, 33 Bath St",
    "lat": 52.97290988,
    "long": -1.30901151
  },
  {
    "name": "Wrexham, Ruabon Park SS, James Park Way",
    "lat": 52.9834392,
    "long": -3.045323825
  },
  {
    "name": "Aberdeen, 4 East Mall",
    "lat": 57.14356051,
    "long": -2.096900082
  },
  {
    "name": "Dalgety Bay, U1 Hillend IP",
    "lat": 56.04198119,
    "long": -3.359638471
  },
  {
    "name": "Kirkintilloch, 73 Cowgate",
    "lat": 55.940012,
    "long": -4.157191459
  },
  {
    "name": "South Woodford, 168 George Ln",
    "lat": 51.59390179,
    "long": 0.024717503
  },
  {
    "name": "Billericay, 121 High St",
    "lat": 51.62413598,
    "long": 0.416108758
  },
  {
    "name": "Oakwood, 197 Bramley Rd",
    "lat": 51.64909629,
    "long": -0.128863469
  },
  {
    "name": "Clydebank, U13 Sylvania Way, Clyde SC",
    "lat": 55.90190273061,
    "long": -4.404872878719
  },
  {
    "name": "Clapham Junction, 22 Saint Johns Rd",
    "lat": 51.46309418,
    "long": -0.167969306
  },
  {
    "name": "Doncaster, Waterdale SC",
    "lat": 53.52099304,
    "long": -1.133256913
  },
  {
    "name": "Leeds, 3 Middleton Pk Ave",
    "lat": 53.74760986,
    "long": -1.547517162
  },
  {
    "name": "Sale, 162 Northendon Rd",
    "lat": 53.4199396,
    "long": -2.304263749
  },
  {
    "name": "Liverpool, 21 Bold St",
    "lat": 53.40379375,
    "long": -2.979443946
  },
  {
    "name": "Leeds, U28 White Rose SC",
    "lat": 53.75995262,
    "long": -1.573699246
  },
  {
    "name": "Kimberley, 41 Greens Lane",
    "lat": 52.99689284,
    "long": -1.25592547
  },
  {
    "name": "North Ormesby, 40 Kings Rd",
    "lat": 54.57061074,
    "long": -1.213065994
  },
  {
    "name": "Dunfermline, Turnstone Rd",
    "lat": 56.06160853,
    "long": -3.406151501
  },
  {
    "name": "Runcorn, 34 Forest Wlk",
    "lat": 53.327701624615,
    "long": -2.698491459205
  },
  {
    "name": "Hull, U44A St Stephens SC",
    "lat": 53.74578903,
    "long": -0.347811015
  },
  {
    "name": "Holborn, 81 Leather Ln",
    "lat": 51.52129236,
    "long": -0.110064051
  },
  {
    "name": "Runcorn, 34 Church St",
    "lat": 53.34260499,
    "long": -2.732752021
  },
  {
    "name": "Outlet: Deckham, 300 Old Durham Rd",
    "lat": 54.9512206,
    "long": -1.595724853
  },
  {
    "name": "Upminster, 72 Station Rd",
    "lat": 51.55885702,
    "long": 0.250567758
  },
  {
    "name": "EURO Green Croft",
    "lat": 53.55665924,
    "long": -2.316776889
  },
  {
    "name": "EURO Langley Mill",
    "lat": 53.01997165,
    "long": -1.325212208
  },
  {
    "name": "EURO Plantation",
    "lat": 53.7487021,
    "long": -1.633009423
  },
  {
    "name": "EURO Weyhill West",
    "lat": 51.21468883,
    "long": -1.535344834
  },
  {
    "name": "MOTO Kinross Kiosk",
    "lat": 56.20976967,
    "long": -3.439562805
  },
  {
    "name": "EURO Manor Weald",
    "lat": 51.17339163,
    "long": -0.650505531
  },
  {
    "name": "EURO Stourport",
    "lat": 52.34188296,
    "long": -2.276906728
  },
  {
    "name": "EURO Whitchurch",
    "lat": 52.96710708,
    "long": -2.705308298
  },
  {
    "name": "MOTO Wetherby FC",
    "lat": 53.94484808,
    "long": -1.370521615
  },
  {
    "name": "MOTO Toddington South FC",
    "lat": 51.94693645,
    "long": -0.503372508
  },
  {
    "name": "EURO Barton Upon Humber",
    "lat": 53.68050946,
    "long": -0.454733366
  },
  {
    "name": "EURO Lawnswood",
    "lat": 53.8489061,
    "long": -1.59254415
  },
  {
    "name": "EURO Great Bridge",
    "lat": 50.99810939,
    "long": -1.498786572
  },
  {
    "name": "FALCON Wembdon",
    "lat": 51.13176805,
    "long": -3.041237259
  },
  {
    "name": "EURO Barrowbrook",
    "lat": 53.84004798,
    "long": -2.396373456
  },
  {
    "name": "BLAKEMORE Greater Leys",
    "lat": 51.71738796,
    "long": -1.197069596
  },
  {
    "name": "EURO Formby",
    "lat": 53.5687674,
    "long": -3.04831963
  },
  {
    "name": "MOTO Trowell North FC",
    "lat": 52.96262204,
    "long": -1.267572594
  },
  {
    "name": "MOTO Donington Park FC",
    "lat": 52.82316474,
    "long": -1.308496798
  },
  {
    "name": "EURO Hexham",
    "lat": 54.97873067,
    "long": -2.091857644
  },
  {
    "name": "PGG South Marston",
    "lat": 51.5804478,
    "long": -1.719500566
  },
  {
    "name": "APPLEGREEN M1 Northbound",
    "lat": 54.51130371,
    "long": -6.04852594
  },
  {
    "name": "EURO Braywick",
    "lat": 51.5055203,
    "long": -0.711928596
  },
  {
    "name": "EURO Causeway",
    "lat": 53.380467,
    "long": -2.588779669
  },
  {
    "name": "EURO Deesside",
    "lat": 53.23268746,
    "long": -3.005316234
  },
  {
    "name": "EURO Ormskirk",
    "lat": 53.56577144,
    "long": -2.89307089
  },
  {
    "name": "EURO Ross Spur",
    "lat": 51.92759064,
    "long": -2.56954755
  },
  {
    "name": "EURO Larkhill",
    "lat": 53.42878814,
    "long": -2.919643334
  },
  {
    "name": "MOTO Toddington North FC",
    "lat": 51.94694469,
    "long": -0.503359379
  },
  {
    "name": "EURO Ermont Way",
    "lat": 52.06899897,
    "long": -1.316337017
  },
  {
    "name": "BLAKEMORE Bentley",
    "lat": 52.5872466,
    "long": -2.034646687
  },
  {
    "name": "EURO Corby",
    "lat": 52.4961775,
    "long": -0.650743989
  },
  {
    "name": "EURO Circle",
    "lat": 53.45707623,
    "long": -2.336572893
  },
  {
    "name": "EURO Sandy Lodge",
    "lat": 51.63170935,
    "long": -0.415815047
  },
  {
    "name": "MOTO Lancaster South",
    "lat": 53.96169663,
    "long": -2.760383985
  },
  {
    "name": "MOTO Knutsford North",
    "lat": 53.30066233,
    "long": -2.402441075
  },
  {
    "name": "EURO Holtspur",
    "lat": 51.59983448,
    "long": -0.668379854
  },
  {
    "name": "EURO Ivy Cross",
    "lat": 51.010404,
    "long": -2.192654571
  },
  {
    "name": "MOTO Blackburn",
    "lat": 53.71287044,
    "long": -2.477515676
  },
  {
    "name": "EURO Matrix",
    "lat": 53.68688842,
    "long": -2.667928542
  },
  {
    "name": "PGG Forfar",
    "lat": 56.63454692,
    "long": -2.920371638
  },
  {
    "name": "Greggs @ Tesco Extra Streatham",
    "lat": 51.42494118,
    "long": -0.131148615
  },
  {
    "name": "MOTO Chieveley",
    "lat": 51.44938427,
    "long": -1.311025596
  },
  {
    "name": "EURO Shrewsbury",
    "lat": 52.68212863,
    "long": -2.760009253
  },
  {
    "name": "HKS Dinnington",
    "lat": 53.37566921,
    "long": -1.225100363
  },
  {
    "name": "EURO Royal Green",
    "lat": 53.40245154,
    "long": -2.254636794
  },
  {
    "name": "EURO Bangor",
    "lat": 53.20333495,
    "long": -4.10545665
  },
  {
    "name": "HKS A38 Northbound",
    "lat": 52.8549943,
    "long": -1.583097285
  },
  {
    "name": "MOTO Trowell North",
    "lat": 52.96174305,
    "long": -1.268659814
  },
  {
    "name": "MOTO Cherwell Valley",
    "lat": 51.94980831,
    "long": -1.197903549
  },
  {
    "name": "EURO Skipton",
    "lat": 53.96592311,
    "long": -2.042522448
  },
  {
    "name": "EURO Elstree Hill",
    "lat": 51.6376959,
    "long": -0.3040372
  },
  {
    "name": "EURO Fareham",
    "lat": 50.84480048,
    "long": -1.182912142
  },
  {
    "name": "EURO Thame",
    "lat": 51.75677918,
    "long": -0.979130846
  },
  {
    "name": "EURO Chalk",
    "lat": 51.43203218,
    "long": 0.395086115
  },
  {
    "name": "EURO Doncaster",
    "lat": 53.58814611,
    "long": -1.215122415
  },
  {
    "name": "EURO Halt",
    "lat": 52.26030633,
    "long": -3.498086767
  },
  {
    "name": "EURO Podimore",
    "lat": 51.02293452,
    "long": -2.660428168
  },
  {
    "name": "MFG Newby Bridge",
    "lat": 54.26271451,
    "long": -2.961206871
  },
  {
    "name": "EURO Crofters Lodge",
    "lat": 55.00149148,
    "long": -1.666205913
  },
  {
    "name": "Cannock, Cannock Gateway RP, Eastern Wy",
    "lat": 52.67344532,
    "long": -2.02240026
  },
  {
    "name": "EURO Coopers Ln",
    "lat": 53.46621779,
    "long": -2.854839053
  },
  {
    "name": "Leicester, U10 Fosse Pk SC, Food Crt",
    "lat": 52.59728958,
    "long": -1.180489515
  },
  {
    "name": "EURO Rivenhall",
    "lat": 51.81816689,
    "long": 0.670500765
  },
  {
    "name": "Reading, Whiteknights Retail Centre",
    "lat": 51.428616,
    "long": -0.94566
  },
  {
    "name": "EURO Shavington",
    "lat": 53.05709941,
    "long": -2.442515084
  },
  {
    "name": "MFG Aldershot",
    "lat": 51.24292475,
    "long": -0.751076812
  },
  {
    "name": "Outlet: Preston, U1 London Rd",
    "lat": 53.75746097,
    "long": -2.683662491
  },
  {
    "name": "EURO Red Post",
    "lat": 50.7801433,
    "long": -2.173511614
  },
  {
    "name": "Liverpool, Queens Square Bus Station",
    "lat": 53.4075427,
    "long": -2.9826939
  },
  {
    "name": "APPLEBY Longhedge",
    "lat": 51.10676809,
    "long": -1.793690001
  },
  {
    "name": "EURO Sproughton Rd",
    "lat": 52.06308306,
    "long": 1.10886265
  },
  {
    "name": "BLAKEMORE Carlton",
    "lat": 53.20156589,
    "long": -2.934347387
  },
  {
    "name": "Staffordshire, U6 Keele University",
    "lat": 53.0018268,
    "long": -2.2732442
  },
  {
    "name": "EURO ASDA Bedminster",
    "lat": 51.44427083,
    "long": -2.594988101
  },
  {
    "name": "Milton Keynes, U12 The Mall, Kingston SC",
    "lat": 52.03593,
    "long": -0.687373
  },
  {
    "name": "London, U2, 101 Tottenham Court Rd",
    "lat": 51.52276494,
    "long": -0.136736673
  },
  {
    "name": "Blackburn, UC Crabtree St",
    "lat": 53.75020744,
    "long": -2.460281375
  },
  {
    "name": "MFG Sutterton",
    "lat": 52.88926492,
    "long": -0.085189731
  },
  {
    "name": "Chesterfield, U3, 42 Chatsworth Rd",
    "lat": 53.23513783,
    "long": -1.440259198
  },
  {
    "name": "London, 154 Bishopsgate",
    "lat": 51.51712001,
    "long": -0.080649927
  },
  {
    "name": "Spalding, U4, 1 Hugh Close",
    "lat": 52.80937985,
    "long": -0.14128836
  },
  {
    "name": "Orpington, U18 Nugent SP, Cray Ave",
    "lat": 51.39308,
    "long": 0.11179
  },
  {
    "name": "London, U5 Kings Cross Station",
    "lat": 51.53183,
    "long": -0.12464
  },
  {
    "name": "Stoke on Trent, U2 Baths Rd",
    "lat": 52.9897775,
    "long": -2.1403677
  },
  {
    "name": "MFG Kessock",
    "lat": 57.48734121,
    "long": -4.220242691
  },
  {
    "name": "Newark, 46/46A Market Pl",
    "lat": 53.07600533,
    "long": -0.809792502
  },
  {
    "name": "St Clears, U2, Hl Waun Saggrd Drive Thru",
    "lat": 51.81722,
    "long": -4.506013
  },
  {
    "name": "MFG Meadow",
    "lat": 53.57974517,
    "long": -2.377801886
  },
  {
    "name": "WELCOME BREAK Warrington",
    "lat": 53.39843301,
    "long": -2.542527705
  },
  {
    "name": "London, 421-422 Strand",
    "lat": 51.50989262,
    "long": -0.123467469
  },
  {
    "name": "Outlet: Handsworth, U1, 121 Villa Rd",
    "lat": 52.50291248,
    "long": -1.916530844
  },
  {
    "name": "PGG Blackpool",
    "lat": 53.80284442,
    "long": -3.00787027
  },
  {
    "name": "ASCONA Crossways",
    "lat": 51.71912733,
    "long": -4.963032795
  },
  {
    "name": "MOTO Lancaster South FC",
    "lat": 53.96245339,
    "long": -2.758669541
  },
  {
    "name": "Outlet: Canning Town, Hermit Road",
    "lat": 51.51855753,
    "long": 0.012854735
  },
  {
    "name": "Ashford, Ashford RP, Barrey Rd",
    "lat": 51.13036971,
    "long": 0.905713973
  },
  {
    "name": "Brynmawr, U4 Brynmawr RP, Blaina Rd",
    "lat": 51.79662483,
    "long": -3.176060161
  },
  {
    "name": "RONTEC Chelmsford",
    "lat": 51.73255125,
    "long": 0.456061467
  },
  {
    "name": "Birmingham, U9B3 The Fort SP",
    "lat": 52.5086642,
    "long": -1.82370298
  },
  {
    "name": "Long Eaton, UE1 Toton Close",
    "lat": 52.8888808,
    "long": -1.265544
  },
  {
    "name": "Blackburn, U29 Lord Street Mall",
    "lat": 53.7483308,
    "long": -2.4819881
  },
  {
    "name": "BLAKEMORE Tollgate",
    "lat": 51.41713677,
    "long": 0.361131641
  },
  {
    "name": "EURO Maghull",
    "lat": 53.5142725,
    "long": -2.910617745
  },
  {
    "name": "London, U26 Liverpool St Station",
    "lat": 51.52335,
    "long": -0.07744
  },
  {
    "name": "Eastleigh, 41 Market St",
    "lat": 50.96758824,
    "long": -1.351969028
  },
  {
    "name": "MFG Oakwood Gate",
    "lat": 53.4191636,
    "long": -2.5275342
  },
  {
    "name": "MFG Childs Way",
    "lat": 52.0405994,
    "long": -0.749135118
  },
  {
    "name": "Denton, U2A Crownpoint SP",
    "lat": 53.4578296,
    "long": -2.1181118
  },
  {
    "name": "Greggs @ Primark Oxford St, London",
    "lat": 51.51652116,
    "long": -0.131233721
  },
  {
    "name": "Swansea, U19B Morfa SP",
    "lat": 51.64129344,
    "long": -3.935575237
  },
  {
    "name": "Greggs @ Tesco Bradford",
    "lat": 53.78105,
    "long": -1.78846
  },
  {
    "name": "Belfast, 32 Gt Victoria St",
    "lat": 54.59506215,
    "long": -5.93432054
  },
  {
    "name": "Headington, 118 London Rd",
    "lat": 51.759949920916,
    "long": -1.211182895354
  },
  {
    "name": "Newton Mearns, U36 The Avenues SC",
    "lat": 55.772556,
    "long": -4.334192274
  },
  {
    "name": "Winsford, Winsford IE SS",
    "lat": 53.2069537,
    "long": -2.4984446
  },
  {
    "name": "MFG Orchard",
    "lat": 52.1855138,
    "long": 0.158513217
  },
  {
    "name": "ASCONA Springfield Rd",
    "lat": 57.13735225,
    "long": -2.154007943
  },
  {
    "name": "MFG Butts Road",
    "lat": 52.4071107,
    "long": -1.526664217
  },
  {
    "name": "RONTEC Clayton",
    "lat": 52.9893197,
    "long": -2.2250012
  },
  {
    "name": "Sheffield, 95 Pinstone St",
    "lat": 53.3791452,
    "long": -1.470516823
  },
  {
    "name": "Outlet: Sheldon, 2178 Coventry Rd",
    "lat": 52.45231625,
    "long": -1.78312865
  },
  {
    "name": "Morley, 13 Windsor Crt",
    "lat": 53.745320879777,
    "long": -1.60221159884
  },
  {
    "name": "Stapleford, 44 Derby Rd",
    "lat": 52.92900304,
    "long": -1.276232585
  },
  {
    "name": "Bingham, 9 Eaton Pl",
    "lat": 52.95224568,
    "long": -0.953281125
  },
  {
    "name": "Bridgwater, U2, 8 High St",
    "lat": 51.12864152,
    "long": -3.004390547
  },
  {
    "name": "Derby, 40 Cornmarket",
    "lat": 52.92259525,
    "long": -1.476753652
  },
  {
    "name": "Cwmbran, 6 Monmouth Wlk",
    "lat": 51.652047780499,
    "long": -3.021782599148
  },
  {
    "name": "Cardiff, 34 Queen St",
    "lat": 51.48103503,
    "long": -3.176370233
  },
  {
    "name": "Trowbridge, U5 Cradle Bridge, County Wy",
    "lat": 51.3174111,
    "long": -2.206971948
  },
  {
    "name": "Shepton Mallet, U2 Townsend Rd",
    "lat": 51.18900757,
    "long": -2.549545489
  },
  {
    "name": "Glasgow, 1029 Shettleston Rd",
    "lat": 55.8518508,
    "long": -4.169765695
  },
  {
    "name": "Coatbridge, 62 Main St",
    "lat": 55.86241251,
    "long": -4.026433235
  },
  {
    "name": "Glasgow, 197 Sauchiehall Ctr",
    "lat": 55.86474839879,
    "long": -4.259755047472
  },
  {
    "name": "Glasgow, UB1 Glasgow Fort",
    "lat": 55.87196636,
    "long": -4.138235967
  },
  {
    "name": "Eltham, 166 High St",
    "lat": 51.45066153,
    "long": 0.056369211
  },
  {
    "name": "Stratford, U3 Westfield SC",
    "lat": 51.5435545,
    "long": -0.0066512
  },
  {
    "name": "Loughton, U7 Epping Forest SP, Lngstn Rd",
    "lat": 51.64321588,
    "long": 0.086790379
  },
  {
    "name": "Egremont, 42 Main St",
    "lat": 54.48168636,
    "long": -3.528446321
  },
  {
    "name": "Burnside, 224 Stonelaw Rd",
    "lat": 55.81855734,
    "long": -4.202468219
  },
  {
    "name": "Kelvinbridge, 6 Gibson St",
    "lat": 55.87244982,
    "long": -4.281704863
  },
  {
    "name": "Anniesland, 1580 Great Western Rd",
    "lat": 55.88955743,
    "long": -4.323161402
  },
  {
    "name": "Newcastle Under Lyme, U15 Castle Wlk",
    "lat": 53.011479505545,
    "long": -2.225163637265
  },
  {
    "name": "Merthyr Tydfl, 21 Chestnut Way",
    "lat": 51.76271638,
    "long": -3.380702885
  },
  {
    "name": "Bristol, 30 St Augustines Pde",
    "lat": 51.45396585,
    "long": -2.598041035
  },
  {
    "name": "Trowbridge, 38 The Shires SC",
    "lat": 51.32034117,
    "long": -2.209041724
  },
  {
    "name": "Carmarthen, 11 Red St",
    "lat": 51.857118850794,
    "long": -4.308186788812
  },
  {
    "name": "Bridgend, U7 Bridgend SC, Brackla St",
    "lat": 51.50434406,
    "long": -3.576312017
  },
  {
    "name": "Workington, 19 Murray Rd",
    "lat": 54.64357148,
    "long": -3.547471469
  },
  {
    "name": "Prudhoe, 55 Front St",
    "lat": 54.96132333,
    "long": -1.849085068
  },
  {
    "name": "Montrose, 33 High St",
    "lat": 56.71263479,
    "long": -2.467878205
  },
  {
    "name": "Washington, U3B Peel RP",
    "lat": 54.9071031,
    "long": -1.50373378
  },
  {
    "name": "Lower Edmonton, 235 Bounces Rd",
    "lat": 51.62803549,
    "long": -0.046643145
  },
  {
    "name": "Enfield, 308 Baker St",
    "lat": 51.66295974,
    "long": -0.077847822
  },
  {
    "name": "Epping, 257 High St",
    "lat": 51.69996404,
    "long": 0.112266339
  },
  {
    "name": "Wickford, 26 High St",
    "lat": 51.61277664,
    "long": 0.520937815
  },
  {
    "name": "Leatherhead, 4 High St",
    "lat": 51.29522156,
    "long": -0.329105619
  },
  {
    "name": "Brighton, 150 North St",
    "lat": 50.82318322,
    "long": -0.140892907
  },
  {
    "name": "Hemel Hempstead, 203 The Marlowes",
    "lat": 51.74932878,
    "long": -0.472307074
  },
  {
    "name": "Dagenham, 214 Heathway",
    "lat": 51.54072442,
    "long": 0.148328579
  },
  {
    "name": "Staines, 60 High St",
    "lat": 51.43426142,
    "long": -0.511381586
  },
  {
    "name": "Welwyn Garden City, 30 Stonehills",
    "lat": 51.80210423,
    "long": -0.205647568
  },
  {
    "name": "Bramhall, 7 Woodford Rd",
    "lat": 53.35721174,
    "long": -2.165596125
  },
  {
    "name": "Leeds, Northside RP",
    "lat": 53.82856281,
    "long": -1.564330547
  },
  {
    "name": "Hull, U7 Prospect Ctr",
    "lat": 53.74598533,
    "long": -0.342801948
  },
  {
    "name": "Boston, 14 Pescod Sq SC",
    "lat": 52.97892574,
    "long": -0.021787808
  },
  {
    "name": "Hosforth, 33 Town St",
    "lat": 53.837681,
    "long": -1.641283003
  },
  {
    "name": "Manchester, 41 Arndale SC",
    "lat": 53.483458549469,
    "long": -2.241687461059
  },
  {
    "name": "Manchester, 36 Brazennose St",
    "lat": 53.47965531,
    "long": -2.246381929
  },
  {
    "name": "Bridgend, U7 Raven Cl, Bridgend IE",
    "lat": 51.50045866,
    "long": -3.561561002
  },
  {
    "name": "Cardiff, U8 Regent TP",
    "lat": 51.47486636,
    "long": -3.153720767
  },
  {
    "name": "Yeovil, U3 Lynx Trade Park, Garrett Rd",
    "lat": 50.93348265,
    "long": -2.657804594
  },
  {
    "name": "Helensburgh, 26 Sinclair St",
    "lat": 56.00346639,
    "long": -4.733456199
  },
  {
    "name": "Scunthorpe, U1 Glebe Rd",
    "lat": 53.59451627,
    "long": -0.648080567
  },
  {
    "name": "Shrewsbury, 1 Harlescott Ln",
    "lat": 52.73740305,
    "long": -2.726332564
  },
  {
    "name": "Sheldon, Whirlwind SS, New Coventry Rd",
    "lat": 52.45707407,
    "long": -1.796075477
  },
  {
    "name": "Uddingston, 319 Old Edinburgh Rd",
    "lat": 55.83091873,
    "long": -4.075599662
  },
  {
    "name": "Wanstead, 85 High St",
    "lat": 51.57807443,
    "long": 0.026386587
  },
  {
    "name": "Bermondsey, 79 Tower Bridge Rd",
    "lat": 51.49615718,
    "long": -0.082994615
  },
  {
    "name": "Wisbech, U11, 21-23 Horsefair",
    "lat": 52.665774696756,
    "long": 0.161736250905
  },
  {
    "name": "Norwich, 4 Anglia Sq",
    "lat": 52.63595432,
    "long": 1.295134292
  },
  {
    "name": "Market Drayton, 31 Cheshire St",
    "lat": 52.9045305,
    "long": -2.485067458
  },
  {
    "name": "Doncaster, U1 White Rose RC, Carr Hse Rd",
    "lat": 53.51515854,
    "long": -1.128694874
  },
  {
    "name": "Coventry, 507 Foleshill Rd",
    "lat": 52.42848287,
    "long": -1.499648852
  },
  {
    "name": "Paignton, Yannons Rd",
    "lat": 50.41968007,
    "long": -3.585793031
  },
  {
    "name": "Romford, 16 Western Rd",
    "lat": 51.57698797,
    "long": 0.183163891
  },
  {
    "name": "Paisley, 34 Paisley SC, Causeyside Rd",
    "lat": 55.84431398,
    "long": -4.423510478
  },
  {
    "name": "Droylsden, U35 Queens Wlk",
    "lat": 53.48014073,
    "long": -2.145674056
  },
  {
    "name": "Blackpool, 1 Welbeck Ave",
    "lat": 53.79884719,
    "long": -3.025750667
  },
  {
    "name": "Peterborough, U94 Queensgate SC",
    "lat": 52.574402352516,
    "long": -0.245624769904
  },
  {
    "name": "Merthyr Tydfl, 16 Nwmrkt Wlk, Tydfil SC",
    "lat": 51.745150732275,
    "long": -3.380192494682
  },
  {
    "name": "Rothwell, 45 Commercial St",
    "lat": 53.748401050319,
    "long": -1.477352127766
  },
  {
    "name": "Congleton, 1 Duke St",
    "lat": 53.16369576,
    "long": -2.214068918
  },
  {
    "name": "Street, 98B High St",
    "lat": 51.12628252,
    "long": -2.741025855
  },
  {
    "name": "Bristol, Ucg12 The Galleries",
    "lat": 51.456750113664,
    "long": -2.58986044546
  },
  {
    "name": "Wolverhampton, 3 Dudley St",
    "lat": 52.58573769,
    "long": -2.127311155
  },
  {
    "name": "Coalville, U17 Belvoir SC",
    "lat": 52.723800668967,
    "long": -1.371865587075
  },
  {
    "name": "Uttoxeter, 10 High St",
    "lat": 52.89876759,
    "long": -1.864998446
  },
  {
    "name": "Leicester, 15 Gallowtree Gate",
    "lat": 52.63569536,
    "long": -1.132870217
  },
  {
    "name": "Blaydon, U15 The PCT",
    "lat": 54.964670690857,
    "long": -1.712073256587
  },
  {
    "name": "Chester Le Street, 54 Front St",
    "lat": 54.85710328,
    "long": -1.573812683
  },
  {
    "name": "Newcastle, U1B Haymarket",
    "lat": 54.9776964,
    "long": -1.612981021
  },
  {
    "name": "Braehead, U107 Intu SC",
    "lat": 55.8766427178,
    "long": -4.365160768357
  },
  {
    "name": "Glenrothes, 31 Lyon Wy",
    "lat": 56.196581914553,
    "long": -3.171560282029
  },
  {
    "name": "Redhill, 35 Station Rd",
    "lat": 51.24058134,
    "long": -0.1690998
  },
  {
    "name": "Wood Green, 29 High Rd",
    "lat": 51.59134245,
    "long": -0.10466828
  },
  {
    "name": "High Wycombe, 13 Queens Sq",
    "lat": 51.63037663,
    "long": -0.752646595
  },
  {
    "name": "Ashford, Mx, Grove House, Church Rd",
    "lat": 51.433806426474,
    "long": -0.465312695599
  },
  {
    "name": "Edinburgh, 27A Raeburn Pl",
    "lat": 55.95890687,
    "long": -3.211321522
  },
  {
    "name": "West Denton, U10 Denton Pk SC",
    "lat": 54.99308706,
    "long": -1.698881986
  },
  {
    "name": "Byker, 24 Shields Rd",
    "lat": 54.97636075,
    "long": -1.585548185
  },
  {
    "name": "Nuneaton, 12 Queens Rd",
    "lat": 52.52256385,
    "long": -1.469137355
  },
  {
    "name": "Swansea, UB Swansea Bus Station",
    "lat": 51.61806402,
    "long": -3.946505491
  },
  {
    "name": "Cardiff, U21 Mermaid Quay",
    "lat": 51.463474222378,
    "long": -3.165360155803
  },
  {
    "name": "Corby, U34 Corporation St",
    "lat": 52.48789652,
    "long": -0.701267596
  },
  {
    "name": "Guisborough, 39 Westgate",
    "lat": 54.53525041,
    "long": -1.053244165
  },
  {
    "name": "Gateshead, Metrocentre, Red Mall",
    "lat": 54.957640546294,
    "long": -1.668555247618
  },
  {
    "name": "South Shields, 15 King St",
    "lat": 54.99846056,
    "long": -1.433013837
  },
  {
    "name": "Hertford, 5 Railway St",
    "lat": 51.79676619,
    "long": -0.07737743
  },
  {
    "name": "Pimlico, 111 Lupus St",
    "lat": 51.48761152,
    "long": -0.141624566
  },
  {
    "name": "Southall, 43 The Broadway",
    "lat": 51.51129867,
    "long": -0.37789012
  },
  {
    "name": "Hounslow, 8 High St",
    "lat": 51.468503,
    "long": -0.363528848
  },
  {
    "name": "Martlesham Heath, U1A Betts Ave",
    "lat": 52.06167138,
    "long": 1.279012232
  },
  {
    "name": "Ipswich, U3 Ipswich Station, Burrwell Rd",
    "lat": 52.05061112,
    "long": 1.144260571
  },
  {
    "name": "Hornchurch, 12 Broadway Pde",
    "lat": 51.55079471,
    "long": 0.198766708
  },
  {
    "name": "Great Yarmouth, 182 King St",
    "lat": 52.60740933,
    "long": 1.726857921
  },
  {
    "name": "Grindon, U4 Broadway House, Sprngwll Rd",
    "lat": 54.89450275,
    "long": -1.429649561
  },
  {
    "name": "Wellington, 1 New St",
    "lat": 52.700673884573,
    "long": -2.516980373877
  },
  {
    "name": "Weston Super Mare, 42 Regent St",
    "lat": 51.3474555,
    "long": -2.97832454
  },
  {
    "name": "Tredegar, U12B Gwent SC",
    "lat": 51.774936408905,
    "long": -3.245288574918
  },
  {
    "name": "Rotherham, U2 Onyx RP, Harris Hawk Wy",
    "lat": 53.51077619,
    "long": -1.356560665
  },
  {
    "name": "Poynton, 21 Park Ln",
    "lat": 53.34902755,
    "long": -2.120510666
  },
  {
    "name": "Greggs @ Asda Wigan",
    "lat": 53.543231674755,
    "long": -2.650878260032
  },
  {
    "name": "Bury, U22 The Mall, Mill Gate SC",
    "lat": 53.59239389,
    "long": -2.295368731
  },
  {
    "name": "Bradford, 228 Sticker Lane",
    "lat": 53.78459888,
    "long": -1.720578094
  },
  {
    "name": "Chelmsley Wood, Ulg Wst Chelmsly Wood SC",
    "lat": 52.47963603,
    "long": -1.739890054
  },
  {
    "name": "Perry Barr, One Stop SC, 2 Walsall Rd",
    "lat": 52.51739174,
    "long": -1.903181164
  },
  {
    "name": "Coventry, UA2 Island Site, Vanguard Ave",
    "lat": 52.402799179503,
    "long": -1.557342222432
  },
  {
    "name": "Dundee, 134 Strathmartin Rd",
    "lat": 56.47431632,
    "long": -2.98031167
  },
  {
    "name": "Bishops Stortford, U2 South St",
    "lat": 51.86981712,
    "long": 0.159942748
  },
  {
    "name": "Glasgow, U3 Bchnan Stn, Killermont St",
    "lat": 55.865420674501,
    "long": -4.252010603375
  },
  {
    "name": "Romford, 40 Collier Row Rd",
    "lat": 51.59904386,
    "long": 0.161501485
  },
  {
    "name": "Pontefract, 27 Barnsley Rd",
    "lat": 53.59485427,
    "long": -1.290069673
  },
  {
    "name": "Barry, 133 Holton Rd",
    "lat": 51.40633702,
    "long": -3.2658195
  },
  {
    "name": "Cardiff, 205 Cowbridge Rd Est",
    "lat": 51.48136287,
    "long": -3.198337927
  },
  {
    "name": "Newport, U3 Langland Way",
    "lat": 51.57478755,
    "long": -2.963981523
  },
  {
    "name": "Yeovil, 11 Middle St",
    "lat": 50.94157364,
    "long": -2.631262565
  },
  {
    "name": "Catterick, Richmondshire Wlk SC",
    "lat": 54.37483418,
    "long": -1.723098684
  },
  {
    "name": "Leeds, 57 The Headrow",
    "lat": 53.79911473,
    "long": -1.542787023
  },
  {
    "name": "Manchester, 15A City Tower, Parker St",
    "lat": 53.48009778,
    "long": -2.237778905
  },
  {
    "name": "Burnley, 31 The Mall, Charter Wlk SC",
    "lat": 53.78968355,
    "long": -2.24355225
  },
  {
    "name": "Peterborough, Fletton Quays",
    "lat": 52.56630824,
    "long": -0.237810969
  },
  {
    "name": "Eccles, 12 The Mall",
    "lat": 53.483822316207,
    "long": -2.336476299084
  },
  {
    "name": "Whitby, 16 Station Sq",
    "lat": 54.48519,
    "long": -0.61568
  },
  {
    "name": "Edinburgh, 162 Restalig Rd Sth",
    "lat": 55.96138205,
    "long": -3.151938772
  },
  {
    "name": "Gorseinon, 64 High St",
    "lat": 51.66911644,
    "long": -4.039500226
  },
  {
    "name": "Tamworth, U20 Ankerside SC",
    "lat": 52.63265307,
    "long": -1.693384118
  },
  {
    "name": "Mackworth, 91 Prince Charles Ave",
    "lat": 52.92818012,
    "long": -1.518843835
  },
  {
    "name": "Melksham, 29 High St",
    "lat": 51.37327474,
    "long": -2.138217335
  },
  {
    "name": "Peterlee, 24 Yoden Way",
    "lat": 54.759889605953,
    "long": -1.334730226892
  },
  {
    "name": "Sunderland, 220 Chester Rd",
    "lat": 54.90168142,
    "long": -1.403941359
  },
  {
    "name": "Walker, 15 Churchwalk SC",
    "lat": 54.97399606,
    "long": -1.544937748
  },
  {
    "name": "Motherwell, 61 Brandon Pde",
    "lat": 55.789871627406,
    "long": -3.991202617573
  },
  {
    "name": "Gorbals, 169 Crown St",
    "lat": 55.84906195,
    "long": -4.250209278
  },
  {
    "name": "East Kilbride SC, The Plaza",
    "lat": 55.760031403739,
    "long": -4.179861798098
  },
  {
    "name": "Edinburgh, U12 Princes Mall",
    "lat": 55.95267358,
    "long": -3.190956186
  },
  {
    "name": "Dundee, U3 Dunsinane IE, Broomhill Rd",
    "lat": 56.4813354,
    "long": -3.0148768
  },
  {
    "name": "Glasgow, U1 Crown Street RP",
    "lat": 55.84336921,
    "long": -4.253692995
  },
  {
    "name": "Bromley, 15 High St",
    "lat": 51.40072486,
    "long": 0.017138037
  },
  {
    "name": "Morden, 54 London Rd",
    "lat": 51.40274637,
    "long": -0.193851778
  },
  {
    "name": "Havant, 1 West St",
    "lat": 50.85147512,
    "long": -0.982519853
  },
  {
    "name": "Dorchester, 55 South St",
    "lat": 50.713955500367,
    "long": -2.437385258513
  },
  {
    "name": "Cardiff, 23 Caroline St",
    "lat": 51.47829511,
    "long": -3.175933562
  },
  {
    "name": "Birmingham, U33 Newtown SC",
    "lat": 52.49754535,
    "long": -1.896303629
  },
  {
    "name": "St Andrews, 116 Market St",
    "lat": 56.34031053,
    "long": -2.797380154
  },
  {
    "name": "Whickham, 3 Saint Marys Green",
    "lat": 54.94621052,
    "long": -1.678433893
  },
  {
    "name": "Battle Hill, U6 Battle Hill SC",
    "lat": 55.00542064,
    "long": -1.518474409
  },
  {
    "name": "Wrexham, U28 The Brdgwter Ctr, Wrxham IE",
    "lat": 53.03898156,
    "long": -2.927806061
  },
  {
    "name": "Cardiff, 49 Wilson Rd",
    "lat": 51.47670984,
    "long": -3.255028147
  },
  {
    "name": "Birmingham, 26 Glebe Farm Rd",
    "lat": 52.48847657,
    "long": -1.793976353
  },
  {
    "name": "Shard End, 3 Ownall Rd",
    "lat": 52.49456821,
    "long": -1.777761868
  },
  {
    "name": "Newbridge, 16 High St",
    "lat": 51.66480748,
    "long": -3.144956105
  },
  {
    "name": "Birmingham, U2 Aston St",
    "lat": 52.48562733,
    "long": -1.890986806
  },
  {
    "name": "Birmingham, U12 New Street Station",
    "lat": 52.47766088,
    "long": -1.89801193
  },
  {
    "name": "Cramlington, U23 Manor Wlks SC",
    "lat": 55.08519,
    "long": -1.58941
  },
  {
    "name": "Carluke, U1 Rankin Gait CTR",
    "lat": 55.73372407,
    "long": -3.837216479
  },
  {
    "name": "Richmond, 14 Market Pl",
    "lat": 54.4035565,
    "long": -1.737807642
  },
  {
    "name": "Dunfermline, 92 High St",
    "lat": 56.07157713,
    "long": -3.460484814
  },
  {
    "name": "Consett, 34 Middle St",
    "lat": 54.85230066,
    "long": -1.833188539
  },
  {
    "name": "Sunderland, Hylton Riverside RP",
    "lat": 54.91780578,
    "long": -1.433011366
  },
  {
    "name": "Glasgow, Silverburn SC",
    "lat": 55.81942038,
    "long": -4.341132559
  },
  {
    "name": "Edinburgh, U6 Edin West RP, Chesser Rd",
    "lat": 55.92978841,
    "long": -3.246408369
  },
  {
    "name": "Newcastle, 39 Clayton St",
    "lat": 54.97267605,
    "long": -1.615851897
  },
  {
    "name": "Southampton, Hedge End, 3 Lwr Northam Rd",
    "lat": 50.91398453,
    "long": -1.30310283
  },
  {
    "name": "Orpington, 238 High St",
    "lat": 51.37613873,
    "long": 0.099347308
  },
  {
    "name": "Southfields, 8 Replingham Rd",
    "lat": 51.44467271,
    "long": -0.205932423
  },
  {
    "name": "Twickenham, 8 King St",
    "lat": 51.44655326,
    "long": -0.328427407
  },
  {
    "name": "Harlow, 1A Broadwalk",
    "lat": 51.77078403,
    "long": 0.094150204
  },
  {
    "name": "Dartford, 28 High St",
    "lat": 51.44444708,
    "long": 0.218116095
  },
  {
    "name": "Gorleston-On-Sea, 147 High St",
    "lat": 52.57902374,
    "long": 1.727734486
  },
  {
    "name": "Dover, U23 St James St",
    "lat": 51.1253546,
    "long": 1.315394667
  },
  {
    "name": "March, 33 Broad St",
    "lat": 52.55102507,
    "long": 0.08840223
  },
  {
    "name": "Oldham, U6 Town Sq SC",
    "lat": 53.541723105581,
    "long": -2.113709635223
  },
  {
    "name": "Kendal, U11 Westmorland Ctr",
    "lat": 54.329022044801,
    "long": -2.746557259023
  },
  {
    "name": "Castleford, 9 The Square",
    "lat": 53.72364544,
    "long": -1.314512794
  },
  {
    "name": "Manchester, U10 Grove Vlg Pde",
    "lat": 53.46555729,
    "long": -2.215486747
  },
  {
    "name": "Sheffield, Drake House Cre",
    "lat": 53.34580175,
    "long": -1.355266755
  },
  {
    "name": "Tiverton, 1 Bampton St",
    "lat": 50.90317433,
    "long": -3.486123152
  },
  {
    "name": "East Ham, 95 High St North",
    "lat": 51.53578538,
    "long": 0.052367241
  },
  {
    "name": "Alfreton, 1 Institute Lane",
    "lat": 53.09707443,
    "long": -1.388198606
  },
  {
    "name": "Bangor, 266 High St",
    "lat": 53.22712581,
    "long": -4.124713431
  },
  {
    "name": "Stocksbridge, UA4 Fox Valley RP",
    "lat": 53.48326418,
    "long": -1.589355357
  },
  {
    "name": "Stretford, U1B Trafford Pk",
    "lat": 53.46552672,
    "long": -2.32344082
  },
  {
    "name": "Bristol, U5 Gloucester Rd Nth",
    "lat": 51.50274799,
    "long": -2.57929739
  },
  {
    "name": "Newport, U4, 389 Malpas Rd",
    "lat": 51.6097704,
    "long": -3.00680401
  },
  {
    "name": "Builth Wells, Station Rd",
    "lat": 52.15278495,
    "long": -3.401096394
  },
  {
    "name": "Edinburgh, 126 Lothian Rd",
    "lat": 55.9454941,
    "long": -3.205719119
  },
  {
    "name": "Greenock, 44 Hamilton Way",
    "lat": 55.947814032622,
    "long": -4.758480336289
  },
  {
    "name": "Thornaby, U6 Fleck Wy, Teesside IE",
    "lat": 54.52763043,
    "long": -1.292566277
  },
  {
    "name": "Globe Town, 112 Roman Rd",
    "lat": 51.52864389,
    "long": -0.047721427
  },
  {
    "name": "Wood Green, 7 The Broadway",
    "lat": 51.59592233,
    "long": -0.109261437
  },
  {
    "name": "West Croydon, 10 London Rd",
    "lat": 51.37850445,
    "long": -0.102840773
  },
  {
    "name": "Lowestoft, 65 London Rd North",
    "lat": 52.47573174,
    "long": 1.751928489
  },
  {
    "name": "Glasgow, U1A, 311 Hallhill Rd",
    "lat": 55.85778238,
    "long": -4.135889477
  },
  {
    "name": "Finchley, 25 Ballards Lane",
    "lat": 51.6025646,
    "long": -0.192352211
  },
  {
    "name": "Gosforth, 133 High St",
    "lat": 55.00457923,
    "long": -1.620373189
  },
  {
    "name": "Team Valley, U4 Maingate",
    "lat": 54.94330135,
    "long": -1.624294784
  },
  {
    "name": "Wakefield, The Ridings Ctr",
    "lat": 53.68236591,
    "long": -1.497521922
  },
  {
    "name": "Wallasey, 20 Liscard Way",
    "lat": 53.41942823,
    "long": -3.043231404
  },
  {
    "name": "York, 15 Saint Sampsons Sq",
    "lat": 53.95958313,
    "long": -1.081637499
  },
  {
    "name": "Barnsley, 20 May Day Green",
    "lat": 53.55264808,
    "long": -1.479691838
  },
  {
    "name": "Wythenshawe, UA, The Hub, Ledson Rd",
    "lat": 53.39289742,
    "long": -2.292148152
  },
  {
    "name": "Outlet: Cardiff. 75 Grand Ave",
    "lat": 51.48130481,
    "long": -3.244246687
  },
  {
    "name": "Chesterfield, 8 Burlington St",
    "lat": 53.23597143,
    "long": -1.426851308
  },
  {
    "name": "Glasgow, U21 Springburn Way",
    "lat": 55.883373510461,
    "long": -4.228042372001
  },
  {
    "name": "North Berwick, 56 High St",
    "lat": 56.05852347,
    "long": -2.719126015
  },
  {
    "name": "Bishop Auckland, U2 Newgate SC",
    "lat": 54.664404888739,
    "long": -1.676123071536
  },
  {
    "name": "Manchester, Concourse Ksk, Victoria Stn",
    "lat": 53.48728505,
    "long": -2.242421203
  },
  {
    "name": "Southend, 2 Southchurch Rd",
    "lat": 51.54002448,
    "long": 0.71285407
  },
  {
    "name": "Stockport, 55 Castle St",
    "lat": 53.40199997,
    "long": -2.165510206
  },
  {
    "name": "Staines, U1 The Causeway",
    "lat": 51.43444159,
    "long": -0.529300664
  },
  {
    "name": "Bradford, U6 Clayton Rd",
    "lat": 53.78376734,
    "long": -1.797342015
  },
  {
    "name": "Shirley, U14 Parkgate SC",
    "lat": 52.41315782,
    "long": -1.828238449
  },
  {
    "name": "Leeds, Central Bus Station",
    "lat": 53.796790766404,
    "long": -1.53582225527
  },
  {
    "name": "Lancaster Uni, 8 Alexandra Sq",
    "lat": 54.01038318,
    "long": -2.784651492
  },
  {
    "name": "Taunton, 8 North St",
    "lat": 51.01588712,
    "long": -3.103487002
  },
  {
    "name": "Milton Keynes, 104 Silbury Arcade",
    "lat": 52.043207222119,
    "long": -0.756375706838
  },
  {
    "name": "Middlesbrough, U25 Cleveland SC",
    "lat": 54.575389833397,
    "long": -1.235823269583
  },
  {
    "name": "Bathgate, 2 George Pl",
    "lat": 55.90088019,
    "long": -3.641087298
  },
  {
    "name": "Cambuslang, 151 Western Rd",
    "lat": 55.80915174,
    "long": -4.179737324
  },
  {
    "name": "Glasgow, 162 Buchanan St",
    "lat": 55.86232245,
    "long": -4.253210761
  },
  {
    "name": "Dumfries, 9 Castle St",
    "lat": 55.06996488,
    "long": -3.612718366
  },
  {
    "name": "Middlesbrough, U1 Park Parade",
    "lat": 54.5625457,
    "long": -1.205773454
  },
  {
    "name": "Hitchin, 28 High St",
    "lat": 51.94791875,
    "long": -0.278573902
  },
  {
    "name": "Deptford, 91 Deptford High St",
    "lat": 51.47709535,
    "long": -0.026073303
  },
  {
    "name": "Ham, 430 Richmond Rd",
    "lat": 51.43104167,
    "long": -0.306850345
  },
  {
    "name": "Camberley, 24 Princess Way",
    "lat": 51.33737509,
    "long": -0.745780493
  },
  {
    "name": "Edenbridge, U3 Fircroft Way",
    "lat": 51.20718318,
    "long": 0.061885024
  },
  {
    "name": "Cambuslang, 136 Main St",
    "lat": 55.81904751,
    "long": -4.168645975
  },
  {
    "name": "Wells, 39 High St",
    "lat": 51.20845656,
    "long": -2.647188058
  },
  {
    "name": "Sunderland, Cafe Mall, The Bridges SC",
    "lat": 54.905789632248,
    "long": -1.384667963342
  },
  {
    "name": "Garforth, U2A East Side RP, Aberford Rd",
    "lat": 53.797481257171,
    "long": -1.376785267606
  },
  {
    "name": "Acocks Green, 25 Olton Boulevard East",
    "lat": 52.44332019,
    "long": -1.833927602
  },
  {
    "name": "Bloxwich, 143 High St",
    "lat": 52.61667263,
    "long": -2.004584828
  },
  {
    "name": "Perry Barr, 97 Thornbridge Ave",
    "lat": 52.53568332,
    "long": -1.905836152
  },
  {
    "name": "Lydney, 63 Newerne St",
    "lat": 51.72757652,
    "long": -2.528238573
  },
  {
    "name": "Gloucester, U4a Gloucester BP",
    "lat": 51.84798915,
    "long": -2.171542568
  },
  {
    "name": "Telford, U1 Hadley Centre, High St",
    "lat": 52.7054526,
    "long": -2.485277828
  },
  {
    "name": "Exeter, Marsh Barton TE, U12 Trusham Rd",
    "lat": 50.70694747,
    "long": -3.529586415
  },
  {
    "name": "Inverkeithing, 47 High St",
    "lat": 56.0306533,
    "long": -3.398298148
  },
  {
    "name": "Ayr, U15 Heathfield RP",
    "lat": 55.47901969,
    "long": -4.594927653
  },
  {
    "name": "Becontree, 792 Green Lane",
    "lat": 51.561955,
    "long": 0.12342449
  },
  {
    "name": "Maldon, 34 High St",
    "lat": 51.73145675,
    "long": 0.676606109
  },
  {
    "name": "Waterlooville, 302 London Rd",
    "lat": 50.88000864,
    "long": -1.031011364
  },
  {
    "name": "Christchurch, U1 Saxon Sq SC",
    "lat": 50.73556343,
    "long": -1.777727958
  },
  {
    "name": "Reading, 10 Queen Victoria St",
    "lat": 51.45633283,
    "long": -0.971798518
  },
  {
    "name": "Watford, 5 The Parade, High St",
    "lat": 51.65696449,
    "long": -0.398152362
  },
  {
    "name": "Yately, 117 Reading Rd",
    "lat": 51.34195043,
    "long": -0.82954615
  },
  {
    "name": "High Holborn, 5 High Holborn",
    "lat": 51.51843282,
    "long": -0.111664029
  },
  {
    "name": "Wakefield, U1 Bus Station",
    "lat": 53.68590585082,
    "long": -1.498309678381
  },
  {
    "name": "Hanley, 2 Upper Market Sq",
    "lat": 53.02651657,
    "long": -2.174764041
  },
  {
    "name": "Keighley, Keighley RP, Hard Ings Rd",
    "lat": 53.87501148,
    "long": -1.905532433
  },
  {
    "name": "Huddersfield, U2 Halifax Rd",
    "lat": 53.66749752,
    "long": -1.824135943
  },
  {
    "name": "Syston, 1286 Melton Rd",
    "lat": 52.69860244,
    "long": -1.073892517
  },
  {
    "name": "Barry Island, 1 Paget Road",
    "lat": 51.39167304,
    "long": -3.276062305
  },
  {
    "name": "Gloucester, Kings Walk SC, 28 Kings Wlk",
    "lat": 51.86495041,
    "long": -2.243133162
  },
  {
    "name": "Reading, 70 Whitley St",
    "lat": 51.44510157,
    "long": -0.965543795
  },
  {
    "name": "Nottingham, U13 Lady Bay RP",
    "lat": 52.94607168,
    "long": -1.131266466
  },
  {
    "name": "Pembroke Dock, 6 Dimond St",
    "lat": 51.69370497,
    "long": -4.942183297
  },
  {
    "name": "Llandrindod Wells, Station Cres",
    "lat": 52.24148854,
    "long": -3.37895736
  },
  {
    "name": "Wednesfield, U1 Phoenix Rd IE",
    "lat": 52.59266688,
    "long": -2.079686643
  },
  {
    "name": "Newport, U29 Friars Walk SC",
    "lat": 51.58703928,
    "long": -2.994536628
  },
  {
    "name": "Belfast, U3 Dargan Rd, Duncrue Serv Ctr",
    "lat": 54.62929658,
    "long": -5.913718857
  },
  {
    "name": "Chessington, 332 Hook Rd",
    "lat": 51.36720385,
    "long": -0.307019182
  },
  {
    "name": "Newmarket, 66 High St",
    "lat": 52.24447766,
    "long": 0.406499553
  },
  {
    "name": "Southampton, 8 East St",
    "lat": 50.90185592,
    "long": -1.403222967
  },
  {
    "name": "Sale, 45 School Rd",
    "lat": 53.42511563,
    "long": -2.322881655
  },
  {
    "name": "Wakefield, U36 Trinity Wlk SC",
    "lat": 53.68494742,
    "long": -1.496843937
  },
  {
    "name": "Chesterfield, U3 Lockoford Lane",
    "lat": 53.25217287,
    "long": -1.42363403
  },
  {
    "name": "Sheffield, UJ St James RP, Bochum Parkwy",
    "lat": 53.32822213,
    "long": -1.467160258
  },
  {
    "name": "Liversedge, U3b Fountain Crt",
    "lat": 53.69769932,
    "long": -1.698433935
  },
  {
    "name": "Preston, U6 Sharoe Green Lane",
    "lat": 53.79230045,
    "long": -2.706560712
  },
  {
    "name": "Hamilton, 7 Quarry St",
    "lat": 55.77431807,
    "long": -4.036794867
  },
  {
    "name": "Bridgend, U1 Triangle SC",
    "lat": 51.50710671,
    "long": -3.560431849
  },
  {
    "name": "Hull, U15 Kingswood RP",
    "lat": 53.79501845,
    "long": -0.349894274
  },
  {
    "name": "Levenshulme, 1083 Stockport Rd",
    "lat": 53.43651062,
    "long": -2.18424856
  },
  {
    "name": "Glasgow, 100 George St",
    "lat": 55.86109517,
    "long": -4.244026739
  },
  {
    "name": "Burnley, 69 The Mall, Charter Wlk SC",
    "lat": 53.79016947,
    "long": -2.244240485
  },
  {
    "name": "Denton, 17 Manchester Rd",
    "lat": 53.45611116,
    "long": -2.115020586
  },
  {
    "name": "Warrington, U88 Golden Sq SC",
    "lat": 53.390078312275,
    "long": -2.595038756777
  },
  {
    "name": "Sutton, 194 High St",
    "lat": 51.36579894,
    "long": -0.19405744
  },
  {
    "name": "London, SU45 Ldn Bridge Statn",
    "lat": 51.50434808,
    "long": -0.084154586
  },
  {
    "name": "Pontefract, 18 Market Pl",
    "lat": 53.69162298,
    "long": -1.311026793
  },
  {
    "name": "Widnes, 101 Widnes Rd",
    "lat": 53.36775634,
    "long": -2.726296622
  },
  {
    "name": "Dalton In Furness, 79 Market St",
    "lat": 54.1564998,
    "long": -3.181051814
  },
  {
    "name": "Armthorpe, Armthorpe SC",
    "lat": 53.53615602,
    "long": -1.057591107
  },
  {
    "name": "St Ives, 5 The Pavement",
    "lat": 52.32358727,
    "long": -0.073305991
  },
  {
    "name": "Keynsham, 42A High St",
    "lat": 51.41574374,
    "long": -2.498701989
  },
  {
    "name": "Kingswinford, Bay 2 Pensnett IE",
    "lat": 52.503247252184,
    "long": -2.151002182909
  },
  {
    "name": "Neath, 55 Wind St",
    "lat": 51.66361116,
    "long": -3.804020907
  },
  {
    "name": "Sutton Coldfield, Red Rose SC",
    "lat": 52.56247736,
    "long": -1.823581576
  },
  {
    "name": "Kings Heath, 134 High St",
    "lat": 52.43340117,
    "long": -1.893318542
  },
  {
    "name": "Newcastle, 3 St Marys Pl",
    "lat": 54.97770573,
    "long": -1.612995808
  },
  {
    "name": "Billingham, 57 Queensway",
    "lat": 54.607503704636,
    "long": -1.29256696054
  },
  {
    "name": "Strathaven, 35 Common Green",
    "lat": 55.67679223,
    "long": -4.066618027
  },
  {
    "name": "Rutherglen, 210 Main St",
    "lat": 55.82827251,
    "long": -4.212065708
  },
  {
    "name": "Linwood, U4 Bridge St",
    "lat": 55.84831327,
    "long": -4.48932718
  },
  {
    "name": "Blyth, The Windmill, Cowpen Rd",
    "lat": 55.13033793,
    "long": -1.541558953
  },
  {
    "name": "Bury St Edmunds, 11 Abbeygate St",
    "lat": 52.24482701,
    "long": 0.713726908
  },
  {
    "name": "Kingston, 28 Market Pl",
    "lat": 51.40966457,
    "long": -0.305802081
  },
  {
    "name": "Kingston, 14 Castle St",
    "lat": 51.41140618,
    "long": -0.30171985
  },
  {
    "name": "Chigwell, 197 Manford Way",
    "lat": 51.60834533,
    "long": 0.106986154
  },
  {
    "name": "Northallerton, 185 High St",
    "lat": 54.33890226,
    "long": -1.434153854
  },
  {
    "name": "Newcastle, U8 Eldon Sq",
    "lat": 54.975033297969,
    "long": -1.615060863217
  },
  {
    "name": "Houghton Le Spring, 36 Newbottle St",
    "lat": 54.84388184,
    "long": -1.471702514
  },
  {
    "name": "Erdington, 237 High St",
    "lat": 52.5227494,
    "long": -1.841951672
  },
  {
    "name": "Telford, U7 Birchfield Way",
    "lat": 52.67664036,
    "long": -2.481188752
  },
  {
    "name": "Chippenham, 23 High St",
    "lat": 51.45856812,
    "long": -2.11529799
  },
  {
    "name": "New Addington, 33 Central Pde",
    "lat": 51.34157491,
    "long": -0.014692315
  },
  {
    "name": "Sunbury On Thames, 17 Staines Rd Wst",
    "lat": 51.41971788,
    "long": -0.420034972
  },
  {
    "name": "Waltham Abbey, 14 Sun St",
    "lat": 51.68695219,
    "long": -0.001642676
  },
  {
    "name": "Portsmouth, U6 Portsmouth RP",
    "lat": 50.84660039,
    "long": -1.095763196
  },
  {
    "name": "Cosham, 18 High St",
    "lat": 50.84567313,
    "long": -1.06679686
  },
  {
    "name": "Fareham, West St",
    "lat": 50.85285087,
    "long": -1.17957733
  },
  {
    "name": "Manchester, 28 Cross St",
    "lat": 53.48191006,
    "long": -2.244714505
  },
  {
    "name": "Barrow In Furness, 136 Dalton Rd",
    "lat": 54.11324104,
    "long": -3.225063712
  },
  {
    "name": "Sheffield, U41 Crystal Peaks",
    "lat": 53.3413423,
    "long": -1.352499116
  },
  {
    "name": "Castleford, G14 Jct 32 SC",
    "lat": 53.71295269,
    "long": -1.338048076
  },
  {
    "name": "Wolverhampton, 17 Warstones Dr",
    "lat": 52.5681098,
    "long": -2.165852514
  },
  {
    "name": "Morriston, 29 Woodfield St",
    "lat": 51.6648039,
    "long": -3.925649593
  },
  {
    "name": "Cardiff, UA Excelsior IE, Batchelor Rd",
    "lat": 51.501131651197,
    "long": -3.19755548752
  },
  {
    "name": "Burton on Trent, U33 Albion Gateway",
    "lat": 52.8231116,
    "long": -1.624073321
  },
  {
    "name": "Mexborough, 26 High St",
    "lat": 53.49351873,
    "long": -1.289054144
  },
  {
    "name": "Wakefield, U2 Westgate Station",
    "lat": 53.68295,
    "long": -1.50567
  },
  {
    "name": "Milton Keynes, U1 Phoenix Hse",
    "lat": 52.034160863925,
    "long": -0.771685790101
  },
  {
    "name": "Cardiff, U1 Thornhill Rd",
    "lat": 51.53106451,
    "long": -3.204892964
  },
  {
    "name": "West Bromwich, Birmingham Rd",
    "lat": 52.50972576,
    "long": -1.965146167
  },
  {
    "name": "Orpington, 113 Cotmandene Cres",
    "lat": 51.40363678,
    "long": 0.106063657
  },
  {
    "name": "Pitsea, 5 Northlands Pavement",
    "lat": 51.56634591,
    "long": 0.504106435
  },
  {
    "name": "Slough, Buckingham CTR SC",
    "lat": 51.52140639,
    "long": -0.625498595
  },
  {
    "name": "Byker, 209 Shields Rd",
    "lat": 54.97769996,
    "long": -1.577651886
  },
  {
    "name": "Wolverhampton, 24 Market St",
    "lat": 52.58502296,
    "long": -2.125852517
  },
  {
    "name": "Huddersfield, Leeds Rd",
    "lat": 53.67812359,
    "long": -1.741393639
  },
  {
    "name": "Grimsby, U2 Gilbey Rd",
    "lat": 53.57823884,
    "long": -0.107375793
  },
  {
    "name": "Bradford, U4 Kirkgate SC",
    "lat": 53.79490059,
    "long": -1.755110187
  },
  {
    "name": "Hereford, 14 Commercial St",
    "lat": 52.05714107,
    "long": -2.713889548
  },
  {
    "name": "Huntingdon, 123B High St",
    "lat": 52.33017271,
    "long": -0.182847023
  },
  {
    "name": "Telford, Telford SC, 54 Southwater",
    "lat": 52.674888461965,
    "long": -2.446972052111
  },
  {
    "name": "West Bromwich, Sandwell CTR",
    "lat": 52.51751186,
    "long": -1.993383858
  },
  {
    "name": "Stourbridge, Stourbridge TE, Mil Race Ln",
    "lat": 52.4596916,
    "long": -2.146888339
  },
  {
    "name": "St Neots, U3 Quora RP, Howard Rd",
    "lat": 52.211749447677,
    "long": -0.286718247135
  },
  {
    "name": "Edinburgh, 19 Rose St",
    "lat": 55.95299227,
    "long": -3.196073733
  },
  {
    "name": "Swansea, 241 Oxford St",
    "lat": 51.61938975,
    "long": -3.947074328
  },
  {
    "name": "Wishaw, 83 Main St",
    "lat": 55.7746055,
    "long": -3.921627949
  },
  {
    "name": "Hetton Le Hole, 15 Front St",
    "lat": 54.82113417,
    "long": -1.452090513
  },
  {
    "name": "Livingston, 72 The Centre",
    "lat": 55.884611724888,
    "long": -3.510493673759
  },
  {
    "name": "Manchester, 175 Arndale SC",
    "lat": 53.483458549469,
    "long": -2.241687461059
  },
  {
    "name": "Blackburn, The Mall SC, King William St",
    "lat": 53.74835451,
    "long": -2.483588853
  },
  {
    "name": "Leeds, 71 Albion St",
    "lat": 53.7981265,
    "long": -1.545224694
  },
  {
    "name": "Manchester, 733 Wilmslow Rd",
    "lat": 53.41624034,
    "long": -2.231597322
  },
  {
    "name": "Grimsby, 32 Friargate, Freshney Pl SC",
    "lat": 53.56580252,
    "long": -0.086418414
  },
  {
    "name": "Liverpool, 38 Old Hall St",
    "lat": 53.40930377,
    "long": -2.994028421
  },
  {
    "name": "Pontyclun, UD1 Coedcae Lane IE",
    "lat": 51.53186248,
    "long": -3.401630277
  },
  {
    "name": "Gloucester, Eastern Ave TE",
    "lat": 51.85787146,
    "long": -2.221134791
  },
  {
    "name": "Maldon, Blackwater RP",
    "lat": 51.7550021,
    "long": 0.7271118
  },
  {
    "name": "Basingstoke, UK10 Basingstoke Bus Statn",
    "lat": 51.26617718,
    "long": -1.085567231
  },
  {
    "name": "EURO Wyfla",
    "lat": 53.16579989,
    "long": -3.124893197
  },
  {
    "name": "EURO Speke",
    "lat": 53.34921817,
    "long": -2.862140936
  },
  {
    "name": "EURO Bellfields",
    "lat": 51.26093656,
    "long": -0.573788364
  },
  {
    "name": "WELCOME BREAK Camberwell",
    "lat": 51.48112057,
    "long": -0.094679875
  },
  {
    "name": "EURO Rivington South",
    "lat": 53.60043812,
    "long": -2.572846705
  },
  {
    "name": "EURO Kirkcaldy",
    "lat": 56.12747686,
    "long": -3.171968511
  },
  {
    "name": "EURO Rivington North",
    "lat": 53.599135,
    "long": -2.57418934
  },
  {
    "name": "WELCOME BREAK Crawley",
    "lat": 51.10999481,
    "long": -0.206188304
  },
  {
    "name": "EURO Banbury",
    "lat": 52.04279939,
    "long": -1.327561977
  },
  {
    "name": "EURO Monmouth South",
    "lat": 51.77253201,
    "long": -2.812936945
  },
  {
    "name": "EURO York East",
    "lat": 53.90371946,
    "long": -1.196063346
  },
  {
    "name": "EURO Sheepcot",
    "lat": 51.69191269,
    "long": -0.39805188
  },
  {
    "name": "EURO Manchester Rd",
    "lat": 53.5624981,
    "long": -2.411839064
  },
  {
    "name": "MOTO Bridgwater North",
    "lat": 51.10481339,
    "long": -2.995955611
  },
  {
    "name": "EURO Bickenhill",
    "lat": 52.44484041,
    "long": -1.721894259
  },
  {
    "name": "EURO The Gateway",
    "lat": 52.63655612,
    "long": -2.125776011
  },
  {
    "name": "MOTO Trowell South FC",
    "lat": 52.96263174,
    "long": -1.26756723
  },
  {
    "name": "EURO Hall Park",
    "lat": 51.75713357,
    "long": -0.552748822
  },
  {
    "name": "MFG Winning Post",
    "lat": 50.64039607,
    "long": -3.562848892
  },
  {
    "name": "MOTO Lymm",
    "lat": 53.35894216,
    "long": -2.504905746
  },
  {
    "name": "EURO Westholme Kirkham",
    "lat": 53.79596562,
    "long": -2.890539793
  },
  {
    "name": "MOTO Leigh Delamere East FC",
    "lat": 51.51144739,
    "long": -2.155856849
  },
  {
    "name": "EURO South Petheron",
    "lat": 50.94117318,
    "long": -2.804127191
  },
  {
    "name": "MFG Gate",
    "lat": 51.28960192,
    "long": 0.994615148
  },
  {
    "name": "London, U60 Upper Level, St Pancras Stn",
    "lat": 51.531766,
    "long": -0.127276
  },
  {
    "name": "MOTO Blyth",
    "lat": 53.38752313,
    "long": -1.060922576
  },
  {
    "name": "BLAKEMORE Louth",
    "lat": 53.38288817,
    "long": -0.012367825
  },
  {
    "name": "MOTO Scotch Corner North",
    "lat": 54.44362889,
    "long": -1.667123347
  },
  {
    "name": "BLAKEMORE Leegomery",
    "lat": 52.71191463,
    "long": -2.500268884
  },
  {
    "name": "BLAKEMORE Shawbirch",
    "lat": 52.71839271,
    "long": -2.530206035
  },
  {
    "name": "MOTO Southwaite North FC",
    "lat": 54.79816395,
    "long": -2.871535583
  },
  {
    "name": "WELCOME BREAK Hedon",
    "lat": 53.7404034,
    "long": -0.214804458
  },
  {
    "name": "EURO Aldersbrook",
    "lat": 51.56234983,
    "long": 0.033399011
  },
  {
    "name": "WELCOME BREAK Howden",
    "lat": 53.74339097,
    "long": -0.860103226
  },
  {
    "name": "EURO Baynards Green",
    "lat": 51.95845461,
    "long": -1.202635562
  },
  {
    "name": "EURO Bicester",
    "lat": 51.89362585,
    "long": -1.162766048
  },
  {
    "name": "BLAKEMORE Newbold",
    "lat": 53.25587955,
    "long": -1.446053558
  },
  {
    "name": "EURO Blackford Bridge",
    "lat": 53.57087575,
    "long": -2.294050708
  },
  {
    "name": "MOTO Trowell South",
    "lat": 52.96184668,
    "long": -1.268757329
  },
  {
    "name": "EURO Chiseldon Camp",
    "lat": 51.51473064,
    "long": -1.723503477
  },
  {
    "name": "EURO Kinmel Park West",
    "lat": 53.26819872,
    "long": -3.518583842
  },
  {
    "name": "MOTO Southwaite North",
    "lat": 54.79820995,
    "long": -2.871451093
  },
  {
    "name": "EURO Stow Hill",
    "lat": 51.58296573,
    "long": -3.002378369
  },
  {
    "name": "COMPASS RAF Cosford",
    "lat": 52.64728313,
    "long": -2.304081253
  },
  {
    "name": "MOTO Washington South",
    "lat": 54.88989325,
    "long": -1.558204527
  },
  {
    "name": "EURO Millfarm",
    "lat": 53.81601973,
    "long": -2.89519359
  },
  {
    "name": "EURO Marcham Road",
    "lat": 51.66875208,
    "long": -1.30302477
  },
  {
    "name": "EURO Moorland",
    "lat": 53.0484718,
    "long": -2.178690304
  },
  {
    "name": "EURO Frontier Park",
    "lat": 53.75367506,
    "long": -2.440823422
  },
  {
    "name": "MOTO Beaconsfield",
    "lat": 51.58832968,
    "long": -0.627569683
  },
  {
    "name": "MOTO Exeter",
    "lat": 50.71716325,
    "long": -3.466141184
  },
  {
    "name": "EURO Acorn",
    "lat": 51.65076744,
    "long": -1.5773562
  },
  {
    "name": "EURO Weyhill East",
    "lat": 51.21465901,
    "long": -1.535346175
  },
  {
    "name": "EURO Feering",
    "lat": 51.85302957,
    "long": 0.731904991
  },
  {
    "name": "EURO Colsterworth",
    "lat": 52.80245805,
    "long": -0.609580628
  },
  {
    "name": "MOTO Frankley North",
    "lat": 52.42931082,
    "long": -2.019047712
  },
  {
    "name": "EURO Coronation",
    "lat": 53.84031413,
    "long": -1.470353164
  },
  {
    "name": "MFG Leominster",
    "lat": 52.2330771,
    "long": -2.731300644
  },
  {
    "name": "WELCOME BREAK Ross-on-Wye",
    "lat": 51.85062622,
    "long": -2.66191227
  },
  {
    "name": "MOTO Cobham",
    "lat": 51.30438402,
    "long": -0.405772572
  },
  {
    "name": "MFG Forest Hill",
    "lat": 51.44270044,
    "long": -0.044639161
  },
  {
    "name": "EURO Eye Green",
    "lat": 52.61232885,
    "long": -0.187350247
  },
  {
    "name": "EURO Crewe",
    "lat": 53.07210635,
    "long": -2.435504904
  },
  {
    "name": "BLAKEMORE Staplehurst",
    "lat": 51.1608216,
    "long": 0.551986962
  },
  {
    "name": "EURO Hellingly",
    "lat": 50.87931141,
    "long": 0.231095853
  },
  {
    "name": "EURO Barthomley",
    "lat": 53.06952681,
    "long": -2.336687702
  },
  {
    "name": "MOTO Toddington South",
    "lat": 51.94760741,
    "long": -0.501004903
  },
  {
    "name": "EURO Mead",
    "lat": 51.53238232,
    "long": -0.371007162
  },
  {
    "name": "EURO Railway Exchange",
    "lat": 53.0885455,
    "long": -2.430505321
  },
  {
    "name": "EURO Weld Blundell",
    "lat": 53.52689716,
    "long": -3.030857258
  },
  {
    "name": "EURO Ilminister",
    "lat": 50.93423556,
    "long": -2.937444033
  },
  {
    "name": "EURO Refill",
    "lat": 53.60986811,
    "long": -2.431725538
  },
  {
    "name": "EURO Marston Moretaine",
    "lat": 52.06520656,
    "long": -0.554039858
  },
  {
    "name": "MFG Purfleet",
    "lat": 51.48602644,
    "long": 0.244228998
  },
  {
    "name": "MFG Robin Hood",
    "lat": 51.41625985,
    "long": -0.251266302
  },
  {
    "name": "PGG Rushden",
    "lat": 52.30032185,
    "long": -0.584831599
  },
  {
    "name": "Acocks Green, 1130 Warwick Rd",
    "lat": 52.44688158,
    "long": -1.820768658
  },
  {
    "name": "EURO Pinvin",
    "lat": 52.13046298,
    "long": -2.062865179
  },
  {
    "name": "MOTO Rugby FC",
    "lat": 52.41066976,
    "long": -1.246010699
  },
  {
    "name": "BLAKEMORE Beddau",
    "lat": 51.55432326,
    "long": -3.354670556
  },
  {
    "name": "HKS Mill Lane",
    "lat": 52.25304094,
    "long": -0.918879612
  },
  {
    "name": "BLAKEMORE Broughton Astley",
    "lat": 52.52359263,
    "long": -1.218991643
  },
  {
    "name": "Blackpool, UB Squires Gate RP",
    "lat": 53.78015578,
    "long": -3.034254735
  },
  {
    "name": "Truro, 7 St Nicholas St",
    "lat": 50.26321,
    "long": -5.05239
  },
  {
    "name": "Prudhoe, U1A Tyneview RP, Prudhoe",
    "lat": 54.96856217,
    "long": -1.837715845
  },
  {
    "name": "Crayford, U1 Tower RP, Crayford Rd",
    "lat": 51.45029,
    "long": 0.18228
  },
  {
    "name": "WELCOME BREAK Wyboston",
    "lat": 52.19268973,
    "long": -0.298179794
  },
  {
    "name": "MFG Wynyard",
    "lat": 54.62800049,
    "long": -1.306768317
  },
  {
    "name": "Greggs @ Primark, Birmingham Pavillion",
    "lat": 52.47928469,
    "long": -1.894491012
  },
  {
    "name": "Liverpool, John Lennon Airport",
    "lat": 53.3350601,
    "long": -2.8522632
  },
  {
    "name": "Birmingham Airport, U113 Arrivals",
    "lat": 52.45179,
    "long": -1.73295
  },
  {
    "name": "Harwich, U1A Harwich Gateway RP",
    "lat": 51.941163,
    "long": 1.258335
  },
  {
    "name": "Dundee, U3A Myrekirk Rd",
    "lat": 56.47583068,
    "long": -3.047799133
  },
  {
    "name": "MFG Howe Green",
    "lat": 51.94645213,
    "long": -0.028462104
  },
  {
    "name": "Chippenham, Hathaway RP",
    "lat": 51.46368231,
    "long": -2.11475357408
  },
  {
    "name": "Ludlow, 10 King St",
    "lat": 52.367987,
    "long": -2.7180083
  },
  {
    "name": "PGG Wimborne",
    "lat": 50.799182157333,
    "long": -1.950525778941
  },
  {
    "name": "Weston Super Mare, 74 High St",
    "lat": 51.34911495,
    "long": -2.978997115
  },
  {
    "name": "RONTEC Selby",
    "lat": 53.766932199316,
    "long": -1.063254646828
  },
  {
    "name": "Wednesbury, U2A1 Gallagher SP",
    "lat": 52.56657,
    "long": -2.00886
  },
  {
    "name": "London, 1 Leicester Sq",
    "lat": 51.51070789,
    "long": -0.130852445
  },
  {
    "name": "Outlet: Hednesford, 61 Market St",
    "lat": 52.7088301,
    "long": -1.9993948
  },
  {
    "name": "RONTEC Collingwood",
    "lat": 53.82231498,
    "long": -3.032799702
  },
  {
    "name": "Brentford, 203 High St",
    "lat": 51.48333469,
    "long": -0.308239898
  },
  {
    "name": "Washington, U4 Parsons Rd IE, Parsons Rd",
    "lat": 54.90894,
    "long": -1.53973
  },
  {
    "name": "Norwich, 2 Back Of The Inns",
    "lat": 52.627795,
    "long": 1.29458
  },
  {
    "name": "Uttoxeter, UR1 Dovefields RP",
    "lat": 52.89971,
    "long": -1.86002
  },
  {
    "name": "Outlet: Southampton, 453 Millbrook Rd Wt",
    "lat": 50.91401224,
    "long": -1.447731376
  },
  {
    "name": "Kingswinford, 8 Market St",
    "lat": 52.49637643,
    "long": -2.168140501
  },
  {
    "name": "Poole, 18 Towngate SC, Falkland Sq",
    "lat": 50.71842136,
    "long": -1.981841049
  },
  {
    "name": "Greggs @ Tesco Coventry",
    "lat": 52.43385,
    "long": -1.43281
  },
  {
    "name": "Merthyr Tydfil, Cyfarthfa RP",
    "lat": 51.75014278,
    "long": -3.395213712
  },
  {
    "name": "Glasgow, U2 Rutherglen RP, Dalmarnock Rd",
    "lat": 55.83639338,
    "long": -4.210816426
  },
  {
    "name": "Brislington, U4, 821 Bath Rd",
    "lat": 51.42997937,
    "long": -2.539807498
  },
  {
    "name": "EURO Livingston",
    "lat": 0,
    "long": 0
  },
  {
    "name": "Greggs @ Tesco Stockton",
    "lat": 54.5926,
    "long": -1.3536
  },
  {
    "name": "MFG Market Deeping",
    "lat": 52.68772535,
    "long": -0.327974663
  },
  {
    "name": "MFG Weeley",
    "lat": 51.8592034,
    "long": 1.1026929
  },
  {
    "name": "Swansea, U44A Cwmdu IE, Carmarthen Rd",
    "lat": 51.6359559,
    "long": -3.970546307
  },
  {
    "name": "Paisley, Paisley Central RP, 57 Rnfrw Rd",
    "lat": 55.85075,
    "long": -4.41972
  },
  {
    "name": "WELCOME BREAK Biggleswade",
    "lat": 52.06832168,
    "long": -0.240703182
  },
  {
    "name": "Newport, U19A Newport RP",
    "lat": 51.577141510669,
    "long": -2.944774281133
  },
  {
    "name": "COMPASS Middlesex University",
    "lat": 51.59001266,
    "long": -0.228586939
  },
  {
    "name": "MFG Filton",
    "lat": 51.52228,
    "long": -2.58808
  },
  {
    "name": "EURO Elgin",
    "lat": 57.64026875,
    "long": -3.262396652
  },
  {
    "name": "Slough, Westgate RP, Bath Rd Drive Thru",
    "lat": 51.51776689,
    "long": -0.629865886
  },
  {
    "name": "Gloucester, U2 Old Log Pond, Bristol Rd",
    "lat": 51.8383169,
    "long": -2.270684728
  },
  {
    "name": "London, 3 Eastcheap",
    "lat": 51.51082673,
    "long": -0.085271971
  },
  {
    "name": "EURO Earlsfield",
    "lat": 53.42821299,
    "long": -2.826286817
  },